{"type":"FeatureCollection","features":[{"type":"Feature","properties":{"name":"Egg Harbor Municipal Marina","description":"The Egg Harbor Municipal Marina in Door County has a boat ramp and boarding dock open to the public. Parking is available, and there is a launch fee. For more information call (920) 868-2048\\n      "},"geometry":{"type":"Point","coordinates":[-87.282618,45.050049]}},{"type":"Feature","properties":{"name":"Hika Park Access","description":"The Hika Park boat access is in the Village of Cleveland, in Manitowoc County. The site has a boat ramp and boarding dock open to the public. Vault restrooms are available. \\n      "},"geometry":{"type":"Point","coordinates":[-87.723798,43.915648]}},{"type":"Feature","properties":{"name":"Saxon Harbor Access","description":"The Saxon Harbor Access is in the Town of Saxon, Iron County. The site has three paved boat ramp lanes and a boarding dock open to the public. Vault restrooms are available. For more information call the Forestry and Parks Department (715) 561-2697.\\n      "},"geometry":{"type":"Point","coordinates":[-90.437446,46.561557]}},{"type":"Feature","properties":{"name":"Saxon Falls Flowage Access","description":"The Saxon Falls Flowage Access is in the Town of Saxon, Iron County. The site has one paved boat ramp lane. No boarding dock or restrooms are available. \\n      "},"geometry":{"type":"Point","coordinates":[-90.373674,46.538644]}},{"type":"Feature","properties":{"name":"Bender Park Boat Launch","description":"The Bender Park Boat Launch is in the City of Oak Creek, Milwaukee County. The site has more than five paved boat ramp lanes and a boarding dock open to the public. The launch depth is about three feet deep, depending on the lake level. Flush restrooms are available, and the site is ADA accessible. For more information call Milwaukee County Parks (414) 257-7275.\\n      "},"geometry":{"type":"Point","coordinates":[-87.839428,42.866805]}},{"type":"Feature","properties":{"name":"Port Washington - Lake Michigan","description":"The Port Washington Access is in the City of Port Washington, Ozaukee County. The site has more than five paved boat ramp lanes and a boarding dock open to the public. Flush restrooms are available, and there is a fish cleaning area. The launch depth is deeper than three feet.\\n      "},"geometry":{"type":"Point","coordinates":[-87.86685,43.387702]}},{"type":"Feature","properties":{"name":"Lake Michigan Access","description":"A small launch site in the City of Sheboygan with one boat ramp.\\n      "},"geometry":{"type":"Point","coordinates":[-87.700476,43.767327]}},{"type":"Feature","properties":{"name":"Peshtigo Harbor Access","description":"The Peshtigo Harbor Access is in the Town of Peshtigo, Marinette County. The site has one boat ramp lane on the Peshtigo River. No restrooms are available. For more information call the Wisconsin DNR area Wildlife Biologist (715) 582-5047.\\n      "},"geometry":{"type":"Point","coordinates":[-87.656495,44.974006]}},{"type":"Feature","properties":{"name":"Metro Boat Launch","description":"The Metro Boat Launch is on the Fox River in Brown County. The site has more than five paved boat ramp lanes and an ADA accessible boarding dock.  The launch depth is greater than three feet, and there is a launching fee. Flush restrooms are available. For more information call the Parks, Recreation and Forestry Department (920) 448-3365.\\n      "},"geometry":{"type":"Point","coordinates":[-88.003856,44.537345]}},{"type":"Feature","properties":{"name":"Jackson Harbor Access","description":"The Jackson Harbor Access is on the northeast side of Washington Island, at the tip of the Door County peninsula. There is a boarding dock and potable water. The site is within Rock Island State Park. For more information call theWisconsin State DNR (920) 847-2235.\\n      "},"geometry":{"type":"Point","coordinates":[-86.856157,45.400607]}},{"type":"Feature","properties":{"name":"Two Creeks Access","description":"Two Creeks Access is in the Town of Two Creeks, Manitowoc County. The site has one gravel launch lane and a boarding dock. The launch is in less than three feet of water, and is unprotected.  Launching may be difficult if the waves on Lake Michigan are larger than three feet.\\n      "},"geometry":{"type":"Point","coordinates":[-87.544276,44.304979]}},{"type":"Feature","properties":{"name":"West Shore Access","description":"The West Shore Access is in the Town of Suamico, Brown County. The site has one boat ramp lane, with an unimproved surface, and is not ADA accessible. There is no boarding dock or restrooms. The ramp should be used as carry-in access when water levels are low.\\n      "},"geometry":{"type":"Point","coordinates":[-88.013406,44.619995]}},{"type":"Feature","properties":{"name":"Tennison Bay Ramp","description":"The Tennison Bay Ramp is in the Town of Gibraltar, Door County. The site has one carry-in ramp with an unimproved surface, and is unusable at low water levels (except for canoes and kayaks). Flush restrooms are available. For more information call the Wisconsin State DNR (928) 868-3258.\\n      "},"geometry":{"type":"Point","coordinates":[-87.235104,45.161853]}},{"type":"Feature","properties":{"name":"Barkers Island Marina","description":"Barkers Island Marina is in the City of Superior, Douglas County. The site has two paved boat ramp lanes and a boarding dock. The Marina is ADA accessible, and portable restrooms are available. For more information call the Superior Parks and Recreation Department (715) 395-7270\\n      "},"geometry":{"type":"Point","coordinates":[-92.057309,46.718454]}},{"type":"Feature","properties":{"name":"Loonsfoot Landing","description":"Loonsfoot Landing is in the City of Superior, Douglas County. The site has four paved boat ramp lanes and a boarding dock. The landing is ADA accessible, and flush restrooms are available. For more information call the Superior Parks and Recreation Department (715) 395-7270\\n      "},"geometry":{"type":"Point","coordinates":[-92.034391,46.699924]}},{"type":"Feature","properties":{"name":"Olde Stone Quarry Park Boat Ramp","description":"The Olde Stone Quarry Ramp is in the Town of Sevastopol on Sturgeon Bay. The site has four paved boat ramp lanes and a boarding dock. The launch depth is greater than three feet deep. For more information call the Door County Parks Department (920) 746-9959\\n      "},"geometry":{"type":"Point","coordinates":[-87.405627,44.904462]}},{"type":"Feature","properties":{"name":"Shauer Park Ramp","description":"Shauer Park Ramp is in the Town of Jacksonport, in Door County. The site has one boat ramp lane and a boarding dock. The launch depth is shallow, and should not be used at low water levels, except for canoes and kayaks. \\n      "},"geometry":{"type":"Point","coordinates":[-87.185359,44.94525]}},{"type":"Feature","properties":{"name":"Ephraim Boat Ramp","description":"The Ephraim Ramp is in the Village of Ephraim on Green Bay, Door County. The site has two paved boat ramp lanes and a boarding dock. There is a launching fee.\\n      "},"geometry":{"type":"Point","coordinates":[-87.170516,45.152814]}},{"type":"Feature","properties":{"name":"Herbster Landing","description":"Herbster Landing is in the Town of Clover, Bayfield County. The site has a paved boat ramp in less than three feet of water. Vault restrooms are available. There is a campground with electricity adjacent to the landing.  The site is not  ADA accessible.\\n      "},"geometry":{"type":"Point","coordinates":[-91.257571,46.836341]}},{"type":"Feature","properties":{"name":"Lake Superior Access","description":"The Lake Superior Access Ramp is in the City of Ashland, Ashland County. The site has one paved ramp lane and a boarding dock. There are no restrooms available.\\n      "},"geometry":{"type":"Point","coordinates":[-90.847868,46.609643]}},{"type":"Feature","properties":{"name":"Lake Michigan Access","description":"The Lake Michigan Access in the Town of Peshtigo, Marinette County is a carry-in only site. The launch surface is unimproved, and the water depth is less than three feet.  There are no restrooms and the site is not ADA accessible. For more information call the Wisconsin State DNR (715) 582-5047.\\n      "},"geometry":{"type":"Point","coordinates":[-87.634474,44.984433]}},{"type":"Feature","properties":{"name":"Simmons Island Boat Harbor","description":"Simmons Island Harbor is in the City of Kenosha, Kenosha County. The site has four paved boat ramp lanes and a boarding dock. The harbor is ADA accessible, and flush restrooms as well as fish cleaning areas are available.  There is a launch fee. For more information call the City of Kenosha (262) 654-0207.\\n      "},"geometry":{"type":"Point","coordinates":[-87.817055,42.594933]}},{"type":"Feature","properties":{"name":"South Shore Park Boat Ramp","description":"The South Shore Park Ramp is in the City of Milwaukee, and provides access to Lake Michigan from the protected side of a jetty. There are four paved boat launch lanes and a boarding dock. Flush toilets and a fish cleaning area are available. For more information call Milwaukee County Parks (414) 257-7275.\\n      "},"geometry":{"type":"Point","coordinates":[-87.882134,42.995977]}},{"type":"Feature","properties":{"name":"Little River Access","description":"The Little River Access Ramp is near the Town of Peshtigo, Marinette County. The site has a paved boat ramp lane and a boarding dock. Vault restrooms are available. For more information call the Marinette County Assistant Parks Administrator (715) 732-7530.\\n      "},"geometry":{"type":"Point","coordinates":[-87.625485,45.044419]}},{"type":"Feature","properties":{"name":"Breakwater Park Boat Ramp","description":"The Breakwater Park Boat Ramp is in the City of Oconto, at the base of a deep channel leading into Lake Michigan. The site has two paved boat ramp lanes and a boarding dock. The launch is ADA accessible, and flush restrooms are available. For more information call the City of Oconto Parks Department (920) 834-7732.\\n      "},"geometry":{"type":"Point","coordinates":[-87.830227,44.895076]}},{"type":"Feature","properties":{"name":"Chaudiors Dock Park Boat Ramp","description":"Chaudiors Dock Park is in the Town of Union, Door County. The site has two paved boat ramp lanes and a boarding dock. Vault restrooms are available. Fishing is allowed from the breakwall and shoreline, although a fee is required.  For more information call the Door County Parks Department (920) 746-9959.\\n      "},"geometry":{"type":"Point","coordinates":[-87.697998,44.746946]}},{"type":"Feature","properties":{"name":"Frank E. Murphy County Park Boat Ramp","description":"The Frank E. Murphy Park Ramp is in the Town of Egg Harbor, Door County. The site has two paved boat ramp lanes and a boarding dock. The launch can be somewhat difficult to use at lower water levels, and there is a launch fee. For more information call the Door County Parks Department (920) 746-9959.\\n      "},"geometry":{"type":"Point","coordinates":[-87.3342,45.013723]}},{"type":"Feature","properties":{"name":"Liberty Grove Boat Ramp","description":"The Liberty Grove Boat Ramp is in the Town of Liberty Grove on Ellison Bay, Door County. The site has two paved boat ramp lanes and a boarding dock. The launch area is deeper than three feet and poses no hazards at lower lake levels.\\n      "},"geometry":{"type":"Point","coordinates":[-87.074799,45.255669]}},{"type":"Feature","properties":{"name":"Sugar Creek Park Boat Ramp","description":"The Sugar Creek Boat Ramp is in the Town of Gardner on Green Bay. The site has two gravel boat ramp lanes and a boarding dock. The launch is suitable for small boats only. Vault restrooms are available. For more information contact the Door County Parks Department (920) 746-9959.\\n      "},"geometry":{"type":"Point","coordinates":[-87.660786,44.78664]}},{"type":"Feature","properties":{"name":"Bayfield City Boat Launch","description":"The Bayfield City Launch is in downtown Bayfield, in close proximity to the Madeline Island Ferry. It has two paved ramp lanes and a boarding dock.  There are no restrooms and parking is limited to two days.  For further information contact the City of Bayfield (715) 779-5712.\\n      "},"geometry":{"type":"Point","coordinates":[-90.818511,46.807834]}},{"type":"Feature","properties":{"name":"Lake Superior Access","description":"This access ramp is just outside the City of Ashland. The site has two paved boat ramp lanes and a boarding dock.  There is a boat wash area available to remove exotic species. Portable restrooms are on site and the launch is ADA accessible. For more information contact the Ashland County Forestry and Recreation Department (715) 769-3777.\\n      "},"geometry":{"type":"Point","coordinates":[-90.780378,46.630895]}},{"type":"Feature","properties":{"name":"Lake Michigan Access","description":"This access point is in the Town of Pensaukee, Oconto County. The site is a primitive launch, and is carry-in only.\\n      "},"geometry":{"type":"Point","coordinates":[-87.917316,44.799366]}},{"type":"Feature","properties":{"name":"Deland Park Boat Ramp","description":"The Deland Park Ramp is in the City of Sheboygan, and is sheltered from Lake Michigan by a long breakwater. The site has more than five boat ramp lanes and a boarding dock. There is a launching fee and fish cleaning area. Flush restrooms are available. For more information contact City of Sheboygan Planning Department (920) 459-3366.\\n      "},"geometry":{"type":"Point","coordinates":[-87.703131,43.751584]}},{"type":"Feature","properties":{"name":"D.E. Hall Park","description":"D.E. Hall Park is in the Town of Little River, Oconto County. The site has one gravel boat ramp. The launch is primitive, and best suited for carry-in access when water levels are low. There are camping and picnic areas nearby. For more information contact the Oconto County Forestry, Parks and Recreation Department (920) 834-6995.\\n      "},"geometry":{"type":"Point","coordinates":[-87.813349,44.953809]}},{"type":"Feature","properties":{"name":"Cecil Depeau Bay Shore Park Boat Ramp","description":"The Cecil Depeau Park Boat Ramp is southwest of the town of Dyckesville on Green Bay. The site has four paved launch lanes and a boarding dock. There is a launching fee. Vault restrooms are available. For more information contact the Brown County Parks Department (920) 448-4466.\\n      "},"geometry":{"type":"Point","coordinates":[-87.80304,44.637855]}},{"type":"Feature","properties":{"name":"Red River Park","description":"The Red River Park Ramp is in the town of Red River on Lake Michigan. The site has two gravel launch lanes and a boarding dock. Vault restrooms are available. For more information contact the Kewaunee County Promotions and Recreation Department (920) 388-0444.\\n      "},"geometry":{"type":"Point","coordinates":[-87.747498,44.668315]}},{"type":"Feature","properties":{"name":"Ern-Joys","description":"The Ern-Joys boat ramp is in the Town of Gardner, Door County. The site hast one paved launch lane and a boarding dock. There are no restrooms, and the boat launch is considered crude.  It should be used for small boats only. \\n      "},"geometry":{"type":"Point","coordinates":[-87.642643,44.803199]}},{"type":"Feature","properties":{"name":"Bues Point Ramp","description":"The Bues Point Ramp is near the  Town of Baileys Harbor, on the east side of the Door County Peninsula. There is one paved launch lane and a boarding dock.  Parking is available on the side of town road, and a fee is required. \\n      "},"geometry":{"type":"Point","coordinates":[-87.067678,45.081726]}},{"type":"Feature","properties":{"name":"Bailey's Harbor Access","description":"The Bailey's Harbor Ramp is in the Town of Bailey's Harbor, on the east side of the Door County Peninsula. The site has two paved launch lanes and a boarding dock. There is a launching fee. Car and trailer parking is available one block west of the ramp\\n      "},"geometry":{"type":"Point","coordinates":[-87.122949,45.065612]}},{"type":"Feature","properties":{"name":"Washington Island Access","description":"The Washington Island Boat Ramp is near the Town of Washington, on the south side of Washington Island. The launch is in shallow water, and is ADA accessible.  The ramp provides access to Detroit Harbor, which is sheltered from Lake Michigan on its north, west, and east sides.\\n      "},"geometry":{"type":"Point","coordinates":[-86.934851,45.347528]}},{"type":"Feature","properties":{"name":"Washburn Marina Access","description":"The Washburn Marina Ramp is in the City of Washburn, in Bayfield County.  The site has one paved launch lane and a boarding dock. There are no bathrooms, overnight parking, camping or fires.\\n      "},"geometry":{"type":"Point","coordinates":[-90.888423,46.668726]}},{"type":"Feature","properties":{"name":"Little Sand Bay Access","description":"The Little Sand Bay Boat Ramp is near the Town of Russel in Bayfield County.  There is one paved launch lane and a boarding dock.  Vault restrooms are available, and the site is ADA accessible.\\n      "},"geometry":{"type":"Point","coordinates":[-90.889406,46.947081]}},{"type":"Feature","properties":{"name":"North Bay Shore Recreation Area Boat Ramp","description":"The North Bay Shore Boat Ramp is near the Town of Little River in Oconto County. There are four paved launch lanes and a boarding dock.  Flush restrooms are available and the site is ADA accessible.\\n      "},"geometry":{"type":"Point","coordinates":[-87.782171,44.962732]}},{"type":"Feature","properties":{"name":"Lily Bay Park Boat Ramp","description":"The Lily Bay Park Boat Ramp is near the Town of Sturgeon Bay in Door County. There are two launch lanes and a boarding dock. The boat launch should be used for small boats only, and there is no protection from wind or waves. The site should be used in good weather only. For more information contact the Door County Parks Department (920) 746-9959.\\n      "},"geometry":{"type":"Point","coordinates":[-87.262967,44.849801]}},{"type":"Feature","properties":{"name":"Long Bridge Access","description":"The Long Bridge Boat Ramp is near the Town of Barksdale in Bayfield County. There is one launch lane on a sand beach, and no boarding dock. No restrooms are available, and the site is not ADA accessible.\\n      "},"geometry":{"type":"Point","coordinates":[-90.944664,46.587903]}},{"type":"Feature","properties":{"name":"Onion River Access","description":"The Onion River Access Site is near the Town of Bayview in Bayfield County. The site is a carry-in launch in shallow water at the outlet of the Onion River. There are no restrooms or ADA accessible features.  For more information contact the Wisconsin State DNR Forester (715) 373-6165.\\n      "},"geometry":{"type":"Point","coordinates":[-90.885182,46.756374]}},{"type":"Feature","properties":{"name":"Squaw Bay Access","description":"The Squaw Bay Access is a carry-in only site in shallow water near the Town of Bayfield. There are no restrooms or ADA accessible features.  The launch can be accessed by a set of stairs leading to the shore at the end of Meyers Road.\\n      "},"geometry":{"type":"Point","coordinates":[-91.048737,46.883702]}},{"type":"Feature","properties":{"name":"Kreher Park Boat Landing","description":"The Kreher Park launch is in the City of Ashland. There are two paved launch lanes and a boarding dock. Flush toilets are available, and the site is ADA accessible.  The city does not allow power loading at the ramp. For further information contact the City of Ashland Parks Department (715) 682-7061.\\n      "},"geometry":{"type":"Point","coordinates":[-90.88258,46.596703]}},{"type":"Feature","properties":{"name":"North Bay Lake Michigan Boat Ramp","description":"The North Bay Boat Launch is near the Town of Liberty Grove on the east side of the Door County Peninsula. The site can accomodate small to medium sized boats, and is sheltered from strong wind and waves out of the north.\\n      "},"geometry":{"type":"Point","coordinates":[-87.061048,45.151423]}},{"type":"Feature","properties":{"name":"Whitefish Bay Ramp","description":"The Whitefish Bay Boat Ramp is in the Town of Sevastopol on the east side of the Door County Peninsula. There is one paved launch lane and a boarding dock.  Ramp is unusable at low water levels, but can still accomodate carry-in canoe or kayak launches.  Caution should be exercised in rough weather.\\n      "},"geometry":{"type":"Point","coordinates":[-87.216419,44.905672]}},{"type":"Feature","properties":{"name":"Red Arrow Park Boat Ramp","description":"The Red Arrow Park Boat Ramp is in the City of Manitowoc at the east end of Green Street. There is one paved launch lane and flush restrooms are available. The launch is in shallow water and care should be taken when there are strong onshore/east winds. For more information contact the City of Manitowoc Parks Division (920) 683-4530.\\n      "},"geometry":{"type":"Point","coordinates":[-87.655953,44.077719]}},{"type":"Feature","properties":{"name":"Port Wing Marina Boat Ramp","description":"The Port Wing Marina Ramp is in the Town of Port Wing at the outlet of the Flag River. There is one paved launch lane in deep water. A boarding dock and portable restrooms are present. The site does not have ADA accessible features.\\n      "},"geometry":{"type":"Point","coordinates":[-91.385879,46.791087]}},{"type":"Feature","properties":{"name":"Bark Bay Slough Access","description":"The Bark Bay Slough Access is near the Town of Clover in Bayfield County.  There is one paved launch lane without a boarding dock. The site is not ADA accessible.\\n      "},"geometry":{"type":"Point","coordinates":[-91.201516,46.849576]}},{"type":"Feature","properties":{"name":"Hot Pond Overlook Boat Ramp","description":"The Hot Pond Overlook is in the City of Ashland, at the corner of 11th Avenue and Lake Shore Drive West.  There is one paved launch lane and a boarding dock. No restrooms are available. For further information contact the City of Ashland Parks Department (715) 682-7061.\\n      "},"geometry":{"type":"Point","coordinates":[-90.897991,46.587065]}},{"type":"Feature","properties":{"name":"Pershing Park Lake Michigan Access","description":"The Pershing Park Boat Ramps are in the City of Racine on the south side of the city harbor. There are more than five paved launch lanes in deep water with boarding docks.  Flush restrooms and a fish cleaning area are available.  There is also a launch fee.\\n      "},"geometry":{"type":"Point","coordinates":[-87.779113,42.728408]}},{"type":"Feature","properties":{"name":"McKinley Park Marina","description":"The McKinley Park Boat Ramp is in the City of Milwaukee next to a large marina and shoreline parks. There are more than five paved boat ramps in deep water with boarding docks. Flush restrooms and a fish cleaning area are available. The site is ADA accessible.\\n      "},"geometry":{"type":"Point","coordinates":[-87.882545,43.051339]}},{"type":"Feature","properties":{"name":"Bois Brule River Mouth Access","description":"The Bois Brule River Mouth Access is near the Town of Cloverland in Douglas County. There is one gravel launch lane without a boarding dock. Vault restrooms are available.\\n      "},"geometry":{"type":"Point","coordinates":[-91.61033,46.747767]}},{"type":"Feature","properties":{"name":"Red Arrow Park Boat Ramp","description":"The Red Arrow Park Boat Ramp is in the City of Marinette, at the east end of Bird Street. There are two paved launch lanes in deep water. Vault restrooms are available. \\n      "},"geometry":{"type":"Point","coordinates":[-87.589405,45.086018]}},{"type":"Feature","properties":{"name":"Algoma Marina","description":"The Algoma Marina Boat Launch is in the City of Algoma at the east end of Steele Street. There are four paved launch lanes with boarding docks. Flush restrooms and a fish cleaning area are available. The site is ADA accessible. For further information contact the Algoma Marina (920) 487-2232.\\n      "},"geometry":{"type":"Point","coordinates":[-87.433217,44.608027]}},{"type":"Feature","properties":{"name":"Fish Creek Ramp","description":"The Fish Creek Boat Ramp is in the Town of Gibraltar on the west side of the Door County Peninsula, and provides sheltered access to Green Bay. There are two paved launch lanes with a boarding dock.  Parking is available several blocks away from the ramp, and a fee is required.\\n      "},"geometry":{"type":"Point","coordinates":[-87.245276,45.128471]}},{"type":"Feature","properties":{"name":"Nicolet Bay Access","description":"The Nicolet Bay Boat Ramp is near the Town of Gibraltar, on the west side of the Door County Peninsula. There are two paved launch lanes with a boarding dock. The site is ADA accessible and vault restrooms are available. Overflow parking is available less than a kilometer away, and a State Park sticker is required. For further information contact Peninsula State Park (920) 868-3258.\\n      "},"geometry":{"type":"Point","coordinates":[-87.222839,45.1688]}},{"type":"Feature","properties":{"name":"Sister Bay Marina","description":"The Sister Bay Marina is located in the Village of Sister Bay on the west side of the Door County Peninsula.  The marina has four paved launch lanes with boarding docks.  Car and trailer parking is available 1-2 blocks east of the ramp. A launch fee is required.\\n      "},"geometry":{"type":"Point","coordinates":[-87.119295,45.192037]}},{"type":"Feature","properties":{"name":"Thompsons West End Park Boat Launch","description":"The boat launch at Thompson's West End Park is located in the City of Washburn at the south end of 6th Avenue. There are two paved launch lanes with a boarding dock. Portable restrooms are available on-site.  There is a launch fee and fishing pier nearby. For further information contact the City of Washburn (715) 373-6160.\\n      "},"geometry":{"type":"Point","coordinates":[-90.902981,46.666245]}},{"type":"Feature","properties":{"name":"Red Cliff","description":"The Red Cliff Boat Ramp is located in Red Cliff off of Church Road and Camper Drive. There is one paved launch lane and a boarding dock. Flush restrooms are available on site. The ramp and dock are not ADA accessible.\\n      "},"geometry":{"type":"Point","coordinates":[-90.786923,46.854287]}},{"type":"Feature","properties":{"name":"Bono Creek Access","description":"The Bono Creek Boat Ramp is near the Town of Barksdale in Bayfield. There is one paved launch lane without a boarding dock.  No restrooms or ADA accessible features are available.\\n      "},"geometry":{"type":"Point","coordinates":[-90.921031,46.636695]}},{"type":"Feature","properties":{"name":"Bell Marina, Cornucopia Access","description":"The Bell Marina Boat Ramp is located in the Town of Bell on the west side of the Bayfield Peninsula. There is one paved launch lane with a boarding dock. No restrooms or ADA accessible features are available.\\n      "},"geometry":{"type":"Point","coordinates":[-91.101991,46.857533]}},{"type":"Feature","properties":{"name":"Bark Point Boat Landing","description":"The Bark Point Boat Landing is in the Town of Clover, just off of Bark Point Road on the southeast side of the peninsula. There is one paved launch lane with a boarding dock. No restrooms or ADA accessible features are available.\\n      "},"geometry":{"type":"Point","coordinates":[-91.188629,46.87651]}},{"type":"Feature","properties":{"name":"Myers Park Boat Ramp","description":"The Myers Park Boat Ramp is in the City of Racine at the south end of Pershing Drive.  There is one launch lane without a boarding dock.  The site is better suited for smaller boats, and the launch area is protected by a long rock jetty. For further information contact the City of Racine Parks Department (262) 636-9131.\\n      "},"geometry":{"type":"Point","coordinates":[-87.778647,42.71898]}}]}