{"type":"FeatureCollection","features":[{"type":"Feature","properties":{"name":"Apostle Islands Marina","description":"Over 135 slips, provides gasoline, diesel, electricity, pump-out, ice, restrooms and showers. 30-ton Travelift, complete Rigging Service Center.","phone":"715-779-5661","link":{"text":"apostleislandsmarina.net"},"address":{"street":"South 1st Street","zip":"54814","city":"Bayfield"}},"geometry":{"type":"Point","coordinates":[-90.81416,46.80951]}},{"type":"Feature","properties":{"name":"Bayfield City Dock","description":"Provides 30 slips, water, electricity, bathrooms, and restaurants.","phone":"715-779-5712","link":{"text":"cityofbayfield.com/city-dock.html"},"address":{"street":"Rittenhouse Avenue","zip":"54814","city":"Bayfield"}},"geometry":{"type":"Point","coordinates":[-90.81354,46.80837]}},{"type":"Feature","properties":{"name":"City of Port Washington Marina","description":"Offers 220 slips, provides gas, diesel, pump-out, restrooms, showers, laundry, convenience store, ice, boat launch, picnic area, and  free Wi-Fi.","phone":"262-284-6606","link":{"text":"port-washingtonmarina.com"},"address":{"street":"106 N. Lake St","zip":"53704","city":"Port Washington"}},"geometry":{"type":"Point","coordinates":[-87.86667,43.38794]}},{"type":"Feature","properties":{"name":"SG-Harbor Centre Marina","description":"Offers over 170 slips, provides gas, pump-out, mechanical services, laundry, showers, restrooms, boat launch, swimming pool, tennis courts, picnic area, convenience store, Cable TV and Wi-Fi.","phone":"920-458-6665","link":{"text":"harborcentremarina.com"},"address":{"street":"821 Broughton Drive","zip":"53081","city":"Sheboygan"}},"geometry":{"type":"Point","coordinates":[-87.70075,43.75366]}},{"type":"Feature","properties":{"name":"Lakeshore Towers Marina","description":"Offers about 50 slips.","phone":"262-639-7737","link":{"text":"www.facebook.com/LakeshoreTowersMarina"},"address":{"street":"333 Lake Avenue","zip":"53403","city":"Racine"}},"geometry":{"type":"Point","coordinates":[-87.78083,42.73028]}},{"type":"Feature","properties":{"name":"McKinley Marina","description":"Offers 655 slips, gas, diesel, electricity, pump-out, boat launch, restrooms, winter storage, and a convenience store.","phone":"414-273-5224","link":{"text":"county.milwaukee.gov/BoatingampMcKinleyMa9139.htm"},"address":{"street":"1750 N. Lincoln Memorial Drive","zip":"53202","city":"Milwaukee"}},"geometry":{"type":"Point","coordinates":[-87.88814,43.04932]}},{"type":"Feature","properties":{"name":"Milwaukee Yacht Club","description":"The Yacht Club offers boat storage, docking and launching as well as a site for dining, private parties, weddings  and business meetings.","phone":"414-271-4455","link":{"text":"www.milwaukeeyc.com"},"address":{"street":"1700 N. Lincoln Memorial Dr.","zip":"53202","city":"Milwaukee"}},"geometry":{"type":"Point","coordinates":[-87.88579,43.052028]}},{"type":"Feature","properties":{"name":"Nestegg Marine","description":"Offers boat slips, provides gas, diesel, pump-out, electricity, mechanical services, ice, restrooms, showers, laundry, cable TV, free Wi-Fi, convenience store, and boat launch.","phone":"715-732-4466","link":{"text":"nesteggmarine.com"},"address":{"street":"300 Wells St","zip":"54143","city":"Marinette"}},"geometry":{"type":"Point","coordinates":[-87.62573,45.10137]}},{"type":"Feature","properties":{"name":"Pikes Bay Marina","description":"Offers 208 slips, provides gas, diesel, electricity, pump-out, mechanical services, 35-Ton Travel Lift, restrooms, storage, free Wi-Fi, and Cable TV.","phone":"715-779-3900","link":{"text":"pikesbaymarina.com"},"address":{"street":"84190 Pikes Bay Road","zip":"58414","city":"Bayfield"}},"geometry":{"type":"Point","coordinates":[-90.85379,46.78943]}},{"type":"Feature","properties":{"name":"Racine Yacht Club","description":"Offers sailing lessons, private beach, playground, dining area, and slips for members. Check out their website for more information regarding membership.","phone":"262-634-8585","link":{"text":"racineyachtclub.org"},"address":{"street":"1 Barker Street","zip":"53402","city":"Racine"}},"geometry":{"type":"Point","coordinates":[-87.7781,42.73706]}},{"type":"Feature","properties":{"name":"Reefpoint Marina","description":"Offers boat slips, fuel, pump-out, mechanical services, storage, convenience store, Wi-Fi, pool, and picnic area.","phone":"262-633-7171","link":{"text":"skipperbuds.com"},"address":{"street":"#2 Christopher Columbus Causeway","zip":"53403","city":"Racine"}},"geometry":{"type":"Point","coordinates":[-87.77764,42.73032]}},{"type":"Feature","properties":{"name":"Skipper Bud's Yacht Center Quarterdeck Marina","description":"Offers 250 slips.","phone":"920-746-8200","link":{"text":"skipperbuds.com"},"address":{"street":"705 Quarterdeck Lane","zip":"54235","city":"Sturgeon Bay"}},"geometry":{"type":"Point","coordinates":[-87.37328,44.8231]}},{"type":"Feature","properties":{"name":"Southport Marina","description":"Over 250 slips, provides gas, diesel, electricity, pump-out, mechanical services, 75-ton Travel Lift, heated storage, laundry, restrooms, and free Wi-Fi.","phone":"262-657-5565","link":{"text":"spmarina.net"},"address":{"street":"21 56th St","zip":"53140","city":"Kenosha"}},"geometry":{"type":"Point","coordinates":[-87.81126,42.58506]}},{"type":"Feature","properties":{"name":"South Bay Marina","description":"Offers about 70 slips, provides gas, diesel, pump-out, repair services, laundry, restrooms, boat launch, heated pool, refreshments, and heated storage.","phone":"920-884-1464","link":{"text":"southbaymarina.com"},"address":{"street":"101 Bay Beach Road","zip":"54302","city":"Green Bay"}},"geometry":{"type":"Point","coordinates":[-87.99844,44.53873]}},{"type":"Feature","properties":{"name":"South Shore Yacht Club","description":"Facilities include tender service, dinghy storage, 230 slips, fuel dock, winter storage, and clubhouse.","phone":"414-481-2331","link":{"text":"ssyc.org"},"address":{"street":"2300 East Nock Street","zip":"53207","city":"Milwaukee"}},"geometry":{"type":"Point","coordinates":[-87.88273,42.99774]}},{"type":"Feature","properties":{"name":"The Harbor Club Marina","description":"Offers over 50 boat slips, provides pump-out, Wi-Fi, Cable TV, swimming pool, and dockside restaurant.","phone":"920-746-8200","link":{"text":"skipperbuds.com"},"address":{"street":"133 N. Madison Ave","zip":"54235","city":"Sturgeon Bay"}},"geometry":{"type":"Point","coordinates":[-87.38347,44.83116]}},{"type":"Feature","properties":{"name":"Village of Egg Harbor Municipal Marina","description":"Over 60 slips, provides gas, diesel electricity, pump-out, boat launch, laundry, restrooms and ice, fishing provisions, first aid, free Wi-Fi, Cable TV.","phone":"920-868-3334","link":{"text":"eggharbormarina.com"},"address":{"street":"7815 Dock Road","zip":"54209","city":"Egg Harbor"}},"geometry":{"type":"Point","coordinates":[-87.28263,45.05033]}},{"type":"Feature","properties":{"name":"Washburn Marina","description":"Over 140 slips, provides gas, diesel, pump-out, mechanical services, restroom, showers, 150-Ton Travel Lift, free Wi-Fi, Cable and Satellite TV, and other amenities.","phone":"715-373-5050","link":{"text":"http://www.washburnmarina.com"},"address":{"street":"1 Marina Drive","zip":"54891","city":"Washburn"}},"geometry":{"type":"Point","coordinates":[-90.88798,46.66834]}},{"type":"Feature","properties":{"name":"Barker's Island Marina","description":"Offers 420 boat slips, complete yacht services, 35 ton open end travelift, parts and accessories, complete repair services for power and sail, and transient dockage.","phone":"715-392-7131","link":{"text":"barkersislandmarina.com"},"address":{"street":"250 Marina Dr","zip":"54880","city":"Superior"}},"geometry":{"type":"Point","coordinates":[-92.05416,46.71632]}},{"type":"Feature","properties":{"name":"Gaslight Pointe Marina","description":"Provides restrooms, showers, ice, water, electricity, and private waterfront leisure space.","phone":"262-637-0400","link":{"text":"gaslightpointemarina.com"},"address":{"street":"217 Gaslight Circle","zip":"53403","city":"Racine"}},"geometry":{"type":"Point","coordinates":[-87.77969,42.73143]}},{"type":"Feature","properties":{"name":"Jerry's Dock","description":"Offers scuba diving tours of Milwaukee area shipwrecks as well as salvage, boat towing, and mooring work.","phone":"414-588-6764","link":{"text":"diveaai.com/local-diving/local-maps/len-der-charters-milwaukee"},"address":{"street":"318 S. Water St.","zip":"53215","city":"Milwaukee"}},"geometry":{"type":"Point","coordinates":[-87.9058,43.0281]}},{"type":"Feature","properties":{"name":"Madeline Island Yacht Club","description":"Full service 150-slip marina. Provides diesel, gasoline, electricity, water, pump-outs, restrooms with showers and a complete repair facility.","phone":"715-747-2655","link":{"text":"miyc.net"},"address":{"street":"Main Street","zip":"54850","city":"La Pointe"}},"geometry":{"type":"Point","coordinates":[-90.78084,46.77274]}},{"type":"Feature","properties":{"name":"Manitowoc Marina","description":"Offers 250 slips, mechanical services, boat storage, convenience store, restrooms.","phone":"920-682-5117","link":{"text":"manitowoc-marina.com"},"address":{"street":"425 Maritime Drive","zip":"54221","city":"Manitowoc"}},"geometry":{"type":"Point","coordinates":[-87.64962,44.0961]}},{"type":"Feature","properties":{"name":"Port Superior Marina","description":"Rental and transient dockage. Full service repair facility, ship store, fuel dock and pump out, restaurant and bar, charter boat rental office and onsite boat broker.","phone":"715-779-5360","link":{"text":"portsuperior.com"},"address":{"street":"34480 Port Superior Rd.","zip":"54814","city":"Bayfield"}},"geometry":{"type":"Point","coordinates":[-90.852945,46.791237]}},{"type":"Feature","properties":{"name":"Oconto Breakwater Park Marina","description":"Offers fifty slips for boats 30-50 feet, water, electricity, showers, bathrooms, and fish cleaning station.","phone":"920-834-7706","link":{"text":"cityofoconto.com/Harbor.html"},"address":{"street":"1345 Harbor Rd","zip":"54153","city":"Oconto"}},"geometry":{"type":"Point","coordinates":[-87.83107,44.89437]}},{"type":"Feature","properties":{"name":"Racine Riverside Marine","description":"Offers boat sales, accessories, services, and more.","phone":"262-636-8020","link":{"text":"racineriverside.com"},"address":{"street":"950 Erie Street","zip":"53402","city":"Racine"}},"geometry":{"type":"Point","coordinates":[-87.78649,42.7328]}},{"type":"Feature","properties":{"name":"Roy's Point Marina","description":"Provides diesel, gasoline, pump-out, water, electricity, ice and cable TV hookup at each of the 41 slips. Includes boaters' lounge and restrooms with showers.","phone":"715-779-5025","link":{"text":"royspoint.com"},"address":{"street":"37735 Roys Point Boulevard","zip":"54814","city":"Bayfield"}},"geometry":{"type":"Point","coordinates":[-90.78593,46.84154]}},{"type":"Feature","properties":{"name":"Seagull Marina","description":"Facilities include permanent and overnight dockage, gas, pump-out, launch ramp, fishing licenses,  fish cleaning station, fish freezing, complete fishing and marine supplies and live bait.","phone":"920-794-7533","link":{"text":"seagullmarina.com"},"address":{"street":"1400 Lake Street","zip":"54241","city":"Two Rivers"}},"geometry":{"type":"Point","coordinates":[-87.56683,44.14543]}},{"type":"Feature","properties":{"name":"Sister Bay Marina","description":"The marina has one hundred seasonal slips, forty transient slips, and ten commercial slips.","phone":"920-854-4457","link":{"text":"www.sisterbaymarina.com"},"address":{"street":"Bayshore Rd.","zip":"54234","city":"Sister Bay"}},"geometry":{"type":"Point","coordinates":[-87.119701,45.193278]}},{"type":"Feature","properties":{"name":"West Shore Marine Inc.","description":"Full service boatyard, storage, 30 slips with water, electricity, and WiFi, and restrooms with showers.","phone":"262-632-2724","link":{"text":"westshoreinc.com"},"address":{"street":"811 Ontario St","zip":"54302","city":"Racine"}},"geometry":{"type":"Point","coordinates":[-87.78547,42.73057]}},{"type":"Feature","properties":{"name":"Port Wing Marina","description":"Provides gas, pump-out, water, electricity, and restrooms with showers.","phone":"715-774-3555","link":{"text":"portwingmarina.net"},"address":{"street":"9130 Beach Road","zip":"54865","city":"Port Wing"}},"geometry":{"type":"Point","coordinates":[-91.38268,46.79109]}},{"type":"Feature","properties":{"name":"Siskiwit Bay Marina","description":"15-ton Mobile Boat Lift, 10 ton hydraulic yard trailer.  Provides gasoline, diesel, pump-out, water and electricity. Small ship's store and gift shop. Restrooms and showers. Winter storage.","phone":"715-742-3337","link":{"text":null},"address":{"street":"Cedar Road","zip":"54827","city":"Cornucopia"}},"geometry":{"type":"Point","coordinates":[-91.10268,46.85716]}},{"type":"Feature","properties":{"name":"Schooner Bay Marina","description":"Approx. 50 slips, provides water, electricity, restrooms and showers. Launching and haul outs limited to boats up to 40 ft.","phone":"715-779-5849","link":{"text":null},"address":{"street":"90580 Pageant Road","zip":"54814","city":"Bayfield"}},"geometry":{"type":"Point","coordinates":[-90.7725,46.88196]}},{"type":"Feature","properties":{"name":"Buffalo Bay Marina","description":"Approx. 40 slips, electricity and water provided for some slips.  Small boat launching ramp, no hauling facilities.","phone":"715-799-3743","link":{"text":"redcliff-nsn.gov"},"address":{"street":"Red Cliff Campground Road","zip":"54814","city":"Bayfield"}},"geometry":{"type":"Point","coordinates":[-90.78592,46.85448]}},{"type":"Feature","properties":{"name":"Blackhawk Marina","description":"60-slip complex, provides electricity, water, pump-out, restrooms and showers.","phone":null,"link":{"text":null},"address":{"street":"14 Wilson Ave","zip":"54814","city":"Bayfield"}},"geometry":{"type":"Point","coordinates":[-90.81813,46.80768]}},{"type":"Feature","properties":{"name":"Apostle Islands Yacht Club","description":"Private club, provides water, electricity, restrooms with showers, and a picnic/barbeque area.","phone":"715-779-3054","link":{"text":"aiyc.net"},"address":{"street":"305 South 3rd Street","zip":"54814","city":"Bayfield"}},"geometry":{"type":"Point","coordinates":[-90.81866,46.8077]}},{"type":"Feature","properties":{"name":"Ashland Marina","description":"140-slip complex provides gasoline, diesel, pump-out, electricity, restrooms with showers, and a ship's store.","phone":"715-682-7049","link":{"text":"ashland.wi.us"},"address":{"street":"Tri County Corridor","zip":"54806","city":"Ashland"}},"geometry":{"type":"Point","coordinates":[-90.88701,46.59469]}},{"type":"Feature","properties":{"name":"Saxon Harbor","description":"Provides gasoline, diesel, pump-out, water, electricity, and restrooms with showers. Equipped with 25-ton Travelift, winter storage, and an NOAA weather station.","phone":"715-561-4153","link":{"text":"saxonharborboatingclub.org"},"address":{"street":"Harbor Drive","zip":"54559","city":"Saxon"}},"geometry":{"type":"Point","coordinates":[-90.43825,46.56165]}},{"type":"Feature","properties":{"name":"Harbor Town Marine Inc.","description":"Full service marine facility with mechanics, a ship's store, lifts, personal watercraft, and storage space.","phone":"715-732-9005","link":{"text":null},"address":{"street":"203 E Russell St","zip":"54143","city":"Marinette"}},"geometry":{"type":"Point","coordinates":[-87.59565,45.09174]}},{"type":"Feature","properties":{"name":"Hi Seas Marina","description":"Provides fuel and pump-out, 24hr restrooms with showers. Includes maintenance and repair service, ship's store, and indoor and outdoor storage.","phone":"920-834-2565","link":{"text":"hiseasmarina.com"},"address":{"street":"1711 Harbor Road","zip":"54153","city":"Oconto"}},"geometry":{"type":"Point","coordinates":[-87.84688,44.88804]}},{"type":"Feature","properties":{"name":"Oconto Yacht Club","description":"Includes 38 slips and outdoor storage. Services include gasoline, pump-out, club house with kitchen, laundry, restrooms with shower, and picnic areas.","phone":"920-830-8562","link":{"text":"ocontoyachtclub.info"},"address":{"street":"1781 Yacht Club Road","zip":"54153","city":"Oconto"}},"geometry":{"type":"Point","coordinates":[-87.85187,44.88599]}},{"type":"Feature","properties":{"name":"Windjammer's Sailing Club","description":"Slips for 52 boats, includes boat launch and 1-ton lift. Clubhouse with meeting room, bar room, and restrooms with showers.","phone":"920-434-6850","link":{"text":"windjammerssailingclub.com"},"address":{"street":"4009 Channel Road","zip":"54173","city":"Suamico"}},"geometry":{"type":"Point","coordinates":[-88.00503,44.65181]}},{"type":"Feature","properties":{"name":"Shipyard Marine","description":"Services include storage, repair, tune-ups, winterization, and more.","phone":"920-434-2000","link":{"text":"yachtworld.com"},"address":{"street":"780 Longtail Beach Road","zip":"54173","city":"Suamico"}},"geometry":{"type":"Point","coordinates":[-88.01399,44.61445]}},{"type":"Feature","properties":{"name":"The Boat Yard","description":"Services include dry storage, maintenance, painting, restoration, storage, and winterizing.","phone":"920-435-7811","link":{"text":"theboatyard.us"},"address":{"street":"1028 McDonald Street","zip":"54303","city":"Green Bay"}},"geometry":{"type":"Point","coordinates":[-88.01053,44.52705]}},{"type":"Feature","properties":{"name":"Riverplace Marina & Yacht","description":"<table width=\"330\" border=\"0\" cellpadding=\"4\" cellspacing=\"0\"><tr><tr></tr><tr><td colspan=\"2\" align=\"left\"><table width=\"100%\" border=\"0\" align=\"center\" cellpadding=\"0\" cellspacing=\"0\"><tr><td><font color=\"#000099\" size=\"+2\"><strong>Riverplace Marina & Yacht</strong></font></td></tr><tr><td><table width=\"98%\"><tr><td width=\"13%\"></td><td>457 Marina Lane</td><tr><td width=\"13%\"></td><td>Green Bay, WI 54304</td></tr></table></table><tr><td><tr><td align=\"center\"><p><font color=\"#0000FF\"><a href=\"http://www.riverplacemarina.com\">riverplacemarina.com</a>&nbsp;&nbsp;&nbsp;&nbsp;&nbsp;&nbsp;</font><strong>|</strong>&nbsp;&nbsp;&nbsp;&nbsp;&nbsp;</strong><font color=\"#000000\">920-436-9920</font></p></td></tr><tr><td colspan=\"2\"><tr><td colspan=\"2\" align=\"center\" valign=\"top\"><hr><a href=\"http://www.wisconsincoastalguide.org/\">www.wisconsincoastalguide.org</a></td></tr></table></table></td></tr>","phone":"920-436-9920","link":{"text":"riverplacemarina.com"},"address":{"street":"457 Marina Lane","zip":"54304","city":"Green Bay"}},"geometry":{"type":"Point","coordinates":[-88.04913,44.47806]}},{"type":"Feature","properties":{"name":"Allouez Yacht Harbor Inc.","description":"<table width=\"330\" border=\"0\" cellpadding=\"4\" cellspacing=\"0\"><tr><tr></tr><tr><td colspan=\"2\" align=\"left\"><table width=\"100%\" border=\"0\" align=\"center\" cellpadding=\"0\" cellspacing=\"0\"><tr><td><font color=\"#000099\" size=\"+2\"><strong>Allouez Yacht Harbor Inc.</strong></font></td></tr><tr><td><table width=\"98%\"><tr><td width=\"13%\"></td><td>1310 Marine Street</td><tr><td width=\"13%\"></td><td>Green Bay, WI 54301</td></tr></table></table><tr><td><tr><td align=\"center\"><p><font color=\"#0000FF\"><a href=\"http://www.helloallouez.com\">helloallouez.com</a>&nbsp;&nbsp;&nbsp;&nbsp;&nbsp;&nbsp;</font><strong>|</strong>&nbsp;&nbsp;&nbsp;&nbsp;&nbsp;</strong><font color=\"#000000\">920-430-9300</font></p></td></tr><tr><td colspan=\"2\"><tr><td colspan=\"2\" align=\"center\" valign=\"top\"><hr><a href=\"http://www.wisconsincoastalguide.org/\">www.wisconsincoastalguide.org</a></td></tr></table></table></td></tr>","phone":"920-430-9300","link":{"text":"helloallouez.com"},"address":{"street":"1310 Marine Street","zip":"54301","city":"Green Bay"}},"geometry":{"type":"Point","coordinates":[-88.0225,44.49572]}},{"type":"Feature","properties":{"name":"Green Bay Yachting Club Inc.","description":"Provides 83 slips, economical fuel, winter storage, and a clubhouse with a bar.","phone":"920-432-0168","link":{"text":"greenbayyachtclub.com"},"address":{"street":"100 Bay Beach Road","zip":"54305","city":"Green Bay"}},"geometry":{"type":"Point","coordinates":[-88.00253,44.53554]}},{"type":"Feature","properties":{"name":"Eagles Nest Supper Club Marina","description":"<table width=\"330\" border=\"0\" cellpadding=\"4\" cellspacing=\"0\"><tr><tr></tr><tr><td colspan=\"2\" align=\"left\"><table width=\"100%\" border=\"0\" align=\"center\" cellpadding=\"0\" cellspacing=\"0\">  <tr>     <td><font color=\"#000099\" size=\"+2\"><strong>Eagles Nest Supper Club Marina</strong></font></td>  </tr>  <tr><td><table width=\"98%\">  <tr>  <td width=\"13%\"></td>  <td>3261 Nicolet Dr</td>    <tr>    <td width=\"13%\"></td>    <td>Green Bay, WI 54311</td>    </tr></table></table><tr><td><tr><td align=\"center\"><p><font color=\"#000000\">920-468-0976</font></p></td></tr><tr><td colspan=\"2\"><tr><td colspan=\"2\" align=\"center\" valign=\"top\"><hr><a href=\"http://www.wisconsincoastalguide.org/\">www.wisconsincoastalguide.org</a></td></tr></table></table></td></tr>","phone":"920-468-0976","link":{"text":null},"address":{"street":"3261 Nicolet Dr","zip":"54311","city":"Green Bay"}},"geometry":{"type":"Point","coordinates":[-87.90604,44.56343]}},{"type":"Feature","properties":{"name":"Chaudoir's Dock","description":"<table width=\"330\" border=\"0\" cellpadding=\"4\" cellspacing=\"0\"><tr><tr></tr><tr><td colspan=\"2\" align=\"left\"><table width=\"100%\" border=\"0\" align=\"center\" cellpadding=\"0\" cellspacing=\"0\">  <tr>     <td><font color=\"#000099\" size=\"+2\"><strong>Chaudoir's Dock</strong></font></td>  </tr>  <tr><td><table width=\"98%\">  <tr>  <td width=\"13%\"></td>  <td>1552 County N</td>    <tr>    <td width=\"13%\"></td>    <td>Brussels, WI 54204</td>    </tr></table></table><tr><td colspan=\"2\"><p><font color=\"#000000\">Facilities include a boat launch, picnic area, parking and restrooms.</font></p></td></tr><tr><td><tr><td align=\"center\"><p><font color=\"#0000FF\"><a href=\"http://map.co.door.wi.us/parks/Chaudoirs-Dock.htm\">Chaudoirs-Dock.htm</a></font></p></td></tr><tr><td colspan=\"2\"><tr><td colspan=\"2\" align=\"center\" valign=\"top\"><hr><a href=\"http://www.wisconsincoastalguide.org/\">www.wisconsincoastalguide.org</a></td></tr></table></table></td></tr>","phone":null,"link":{"text":"Chaudoirs-Dock.htm"},"address":{"street":null,"zip":null,"city":null}},"geometry":{"type":"Point","coordinates":[-87.69825,44.74671]}},{"type":"Feature","properties":{"name":"Wave Pointe Marina and Resort","description":"Full service marina with 124 slips, diesel, gas, pump-out, cable, WiFi, and restrooms with showers. Bar, restaurant, and outdoor pool on-site.","phone":"920-824-5437","link":{"text":"wavepointe.com"},"address":{"street":"3600 County Road CC","zip":"54235","city":"Sturgeon Bay"}},"geometry":{"type":"Point","coordinates":[-87.55953,44.84499]}},{"type":"Feature","properties":{"name":"Stone Harbor Marina","description":"Provides water and electricity, restrooms with showers, an on-site restaurant, and a resort hotel.","phone":"920-743-6526","link":{"text":"baymarine.net"},"address":{"street":"155 East Redwood","zip":"54235","city":"Sturgeon Bay"}},"geometry":{"type":"Point","coordinates":[-87.37764,44.82584]}},{"type":"Feature","properties":{"name":"Sturgeon Bay Yacht Club","description":"Provides fuel dock with gas, diesel, and pump-out, WiFi, laundry, and restrooms with showers. Includes yacht repair, certified technicians, and a 70-ton Travelift.","phone":"920-743-6934","link":{"text":"sturgeonbayyachtclub.com"},"address":{"street":"600 Nautical Drive","zip":"54235","city":"Sturgeon Bay"}},"geometry":{"type":"Point","coordinates":[-87.37551,44.8243]}},{"type":"Feature","properties":{"name":"Leathem Smith Lodge and Marina","description":"52-slip marina. Lodge has tennis courts, a pool, bar, and restaurant on site.","phone":"920-743-5555","link":{"text":"lslodge.com"},"address":{"street":"1640 Memorial Drive","zip":"54235","city":"Sturgeon Bay"}},"geometry":{"type":"Point","coordinates":[-87.35621,44.82341]}},{"type":"Feature","properties":{"name":"Centerpointe Marina","description":"150-slip complex able to accommodate yachts up to 250 feet. Clubhouse with lounge, laundry, and restrooms with showers.","phone":"920-746-1912","link":{"text":"shipyardliving.com"},"address":{"street":"215 Quincy Street","zip":"54235","city":"Sturgeon Bay"}},"geometry":{"type":"Point","coordinates":[-87.37431,44.83013]}},{"type":"Feature","properties":{"name":"Stone Harbor Resort","description":"21-slip marina located on Sturgeon Bay.","phone":"920-746-0700","link":{"text":"stoneharbor-resort.com"},"address":{"street":"107 North First Ave","zip":"54235","city":"Sturgeon Bay"}},"geometry":{"type":"Point","coordinates":[-87.38016,44.83366]}},{"type":"Feature","properties":{"name":"Alibi Dock Marina","description":"165 slips for boats up to 125 feet. Provides cable and wireless internet. Guest house, golfing, and a state park nearby.","phone":"920-868-3789","link":{"text":"alibimarina.com"},"address":{"street":"9484 Spruce St","zip":"54212","city":"Fish Creek"}},"geometry":{"type":"Point","coordinates":[-87.24671,45.13017]}},{"type":"Feature","properties":{"name":"Firehouse Marina","description":"Seasonal slips, moorings and transient slips available for rental. Includes public launch ramp, and restrooms with showers.","phone":"920-854-6861","link":{"text":null},"address":{"street":"Water Street S","zip":"54211","city":"Ephraim"}},"geometry":{"type":"Point","coordinates":[-87.17016,45.15452]}},{"type":"Feature","properties":{"name":"Ephraim Yacht Club","description":"Provides gas, diesel, and pump-out.","phone":"920-854-4041","link":{"text":"eyc.org"},"address":{"street":"10071 Water Street North","zip":"54211","city":"Ephraim"}},"geometry":{"type":"Point","coordinates":[-87.17219,45.15974]}},{"type":"Feature","properties":{"name":"Sister Bay Resort and Yacht Club","description":"30-slip private marina provides sheltered dock space for boats up to 35 feet.","phone":"920-854-1900","link":{"text":"ycsb.com"},"address":{"street":"10673 Regatta Way","zip":"54234","city":"Sister Bay"}},"geometry":{"type":"Point","coordinates":[-87.12404,45.18967]}},{"type":"Feature","properties":{"name":"Yacht Works Marina","description":"Over sixty slips provides power, cable TV, water, fuel, pump-out and full boatyard services. Includes restrooms with showers, laundry, and a ships store.","phone":"920-854-2124","link":{"text":"yachtworks.net"},"address":{"street":"10967 N. Bay Shore Drive","zip":"54234","city":"Sister Bay"}},"geometry":{"type":"Point","coordinates":[-87.11982,45.20265]}},{"type":"Feature","properties":{"name":"Cedar Grove Resort and Harbor","description":"Boat slips in 2 deep water harbors.","phone":"920-854-2006","link":{"text":"cedargroveresort.com"},"address":{"street":"12037 Cedar Rd","zip":"54210","city":"Ellison Bay"}},"geometry":{"type":"Point","coordinates":[-87.07468,45.25434]}},{"type":"Feature","properties":{"name":"Dockside at Gills Rock","description":"<table width=\"330\" border=\"0\" cellpadding=\"4\" cellspacing=\"0\"><tr><tr></tr><tr><td colspan=\"2\" align=\"left\"><table width=\"100%\" border=\"0\" align=\"center\" cellpadding=\"0\" cellspacing=\"0\">  <tr>     <td><font color=\"#000099\" size=\"+2\"><strong>Dockside at Gills Rock</strong></font></td>  </tr>  <tr><td><table width=\"98%\">  <tr>  <td width=\"13%\"></td>  <td>919 Cottage Rd</td>    <tr>    <td width=\"13%\"></td>    <td>Ellison Bay, WI 54210</td>    </tr></table></table><tr><td><tr><td align=\"center\"><p><font color=\"#000000\">920-854-9400</font></p></td></tr><tr><td colspan=\"2\"><tr><td colspan=\"2\" align=\"center\" valign=\"top\"><hr><a href=\"http://www.wisconsincoastalguide.org/\">www.wisconsincoastalguide.org</a></td></tr></table></table></td></tr>","phone":"920-854-9400","link":{"text":null},"address":{"street":"919 Cottage Rd","zip":"54210","city":"Ellison Bay"}},"geometry":{"type":"Point","coordinates":[-87.02265,45.28778]}},{"type":"Feature","properties":{"name":"Kap's Marina","description":"Transient and seasonal slip rentals with gas, diesel, pump-out, and a Travelift. Includes restrooms with showers, internet, storage, and bait, tackle and fish licensing.","phone":"920-847-2640","link":{"text":"kapsmarina.com"},"address":{"street":"189 Lobdell Point Road","zip":"54246","city":"Washington Isle"}},"geometry":{"type":"Point","coordinates":[-86.93779,45.33747]}},{"type":"Feature","properties":{"name":"Shipyard Island Marina Inc.","description":"Full-service marina including boat sales, storage, slip rental, and repairs. Includes laundry, a ship's store, and restaurant.","phone":"920-847-2533","link":{"text":"shipyardisland.com?"},"address":{"street":"1475 South Shore Drive","zip":"54246","city":"Washington Island"}},"geometry":{"type":"Point","coordinates":[-86.90836,45.33953]}},{"type":"Feature","properties":{"name":"Rowley's Bay Resort Marina","description":"Docks include use of the resort amenities plus water and electric hookup.","phone":"920 854-2385","link":{"text":"wagontrailresort.com"},"address":{"street":"1041 County Road ZZ","zip":"54210","city":"Ellison Bay"}},"geometry":{"type":"Point","coordinates":[-87.03377,45.2193]}},{"type":"Feature","properties":{"name":"Bailey's Harbor Yacht Club","description":"Resort includes 55-slip full service marina, pools, tennis courts, and a restaurant.","phone":"920-839-2336","link":{"text":"bhycr.com"},"address":{"street":"8151 Ridges Road","zip":"54202","city":"Baileys Harbor"}},"geometry":{"type":"Point","coordinates":[-87.09577,45.0652]}},{"type":"Feature","properties":{"name":"Bailey's Harbor Town Marina","description":"43 slips with gas and diesel refueling, electricity, water, pump-out, four-lit launch ramps, fish cleaning station, and trailer parking. Includes restrooms, showers, and laundry.","phone":"920-839-9778","link":{"text":"baileysharbor.com"},"address":{"street":"8132 Hwy 57","zip":"54202","city":"Baileys Harbor"}},"geometry":{"type":"Point","coordinates":[-87.12257,45.06552]}},{"type":"Feature","properties":{"name":"City of Algoma Marina","description":"Offers 56 slips for vessels up to 40 ft and includes electricity, water,  gasoline, pump-out and a fish cleaning station. Restrooms, showers and a lounge on site.","phone":"920-487-2232","link":{"text":"algomacity.org"},"address":{"street":"60 Steele Street","zip":"54201","city":"Algoma"}},"geometry":{"type":"Point","coordinates":[-87.43268,44.60728]}},{"type":"Feature","properties":{"name":"Sunrise Cove Marina","description":"Full service 42-slip marina includes electricity, water, gasoline, and year round travelift. Provides indoor and outdoor storage and minor boat repair.","phone":"920-487-3405","link":{"text":"sunrisecoveofwi.com"},"address":{"street":"70 Church Street","zip":"54201","city":"Algoma"}},"geometry":{"type":"Point","coordinates":[-87.43308,44.60951]}},{"type":"Feature","properties":{"name":"Captain K's Landing","description":"12 docks and 23 boat slips with electric hookup. Includes fish cleaning station, showers, laundry, and camping.","phone":"715-781-4135","link":{"text":"captainks.net"},"address":{"street":"325 Navarino Street","zip":"54201","city":"Algoma"}},"geometry":{"type":"Point","coordinates":[-87.43978,44.61192]}},{"type":"Feature","properties":{"name":"Kewaunee Marina and Boat Landing","description":"Boat launch with fish cleaning station. Full service marina with gas, supplies, and sundries.","phone":"920-388-3300","link":{"text":"cityofkewaunee.org"},"address":{"street":"123 N. Main Street","zip":"54216","city":"Kewaunee"}},"geometry":{"type":"Point","coordinates":[-87.50244,44.46347]}},{"type":"Feature","properties":{"name":"Salmon Harbor Marina","description":"Full service marina, includes ship's store, lounge, laundry, restrooms with showers and storage.","phone":"920-388-2120","link":{"text":"salmonharbor.net"},"address":{"street":"312 N. Main St","zip":"54216","city":"Kewaunee"}},"geometry":{"type":"Point","coordinates":[-87.49897,44.46587]}},{"type":"Feature","properties":{"name":"Twin Cities Marine Inc.","description":"Provides full service shop, head pump out, showers, fuel, water, electricity, and storage.","phone":"920-793-2715?","link":{"text":"twincitiesmarine.com"},"address":{"street":"1600 12th Street","zip":"54241","city":"Two Rivers"}},"geometry":{"type":"Point","coordinates":[-87.56866,44.14481]}},{"type":"Feature","properties":{"name":"Motts Marina","description":"Marina includes 50 slips with electricity, water, fuel, and seasonal rental.","phone":"920-793-4196","link":{"text":null},"address":{"street":"1900 Jackson Street","zip":"54241","city":"Two Rivers"}},"geometry":{"type":"Point","coordinates":[-87.56292,44.15111]}},{"type":"Feature","properties":{"name":"Stop and Dock Marina","description":"Marina includes 78 slips with electricity, water, fuel, and seasonal rental.","phone":"920-793-2906","link":{"text":null},"address":{"street":"2510 West River Street","zip":"54241","city":"Two Rivers"}},"geometry":{"type":"Point","coordinates":[-87.57937,44.15666]}},{"type":"Feature","properties":{"name":"West Twin Marina","description":"<table width=\"330\" border=\"0\" cellpadding=\"4\" cellspacing=\"0\"><tr><tr></tr><tr><td colspan=\"2\" align=\"left\"><table width=\"100%\" border=\"0\" align=\"center\" cellpadding=\"0\" cellspacing=\"0\">  <tr>     <td><font color=\"#000099\" size=\"+2\"><strong>West Twin Marina</strong></font></td>  </tr>  <tr><td><table width=\"98%\">  <tr>  <td width=\"13%\"></td>  <td>1509 Monroe Street</td>    <tr>    <td width=\"13%\"></td>    <td>Two Rivers, WI 54241</td>    </tr></table></table><tr><td><tr><td align=\"center\"><p><font color=\"#000000\">920-794-6112</font></p></td></tr><tr><td colspan=\"2\"><tr><td colspan=\"2\" align=\"center\" valign=\"top\"><hr><a href=\"http://www.wisconsincoastalguide.org/\">www.wisconsincoastalguide.org</a></td></tr></table></table></td></tr>","phone":"920-794-6112","link":{"text":null},"address":{"street":"1509 Monroe Street","zip":"54241","city":"Two Rivers"}},"geometry":{"type":"Point","coordinates":[-87.57179,44.14707]}},{"type":"Feature","properties":{"name":"Skipper Bud's Milwaukee Marina","description":"Service center offers 20 ton fork lift, mechanical repair facility, storage, restaurant and pub on site.","phone":"414-481-7600","link":{"text":"skipperbuds.com"},"address":{"street":"1919 South Marina Drive","zip":"53207","city":"Milwaukee"}},"geometry":{"type":"Point","coordinates":[-87.90555,43.01015]}},{"type":"Feature","properties":{"name":"South Milwaukee Yacht Club","description":"96 slip harbor than can accommodate vessels up to 44ft , includes fuel dock, pump-out, winter storage, and clubhouse.","phone":"414-762 - 9819","link":{"text":"smyc.net"},"address":{"street":"101 Marshall Avenue","zip":"53172","city":"Milwaukee"}},"geometry":{"type":"Point","coordinates":[-87.8435,42.90591]}},{"type":"Feature","properties":{"name":"Pugh's Marina","description":"<table width=\"330\" border=\"0\" cellpadding=\"4\" cellspacing=\"0\"><tr><tr></tr><tr><td colspan=\"2\" align=\"left\"><table width=\"100%\" border=\"0\" align=\"center\" cellpadding=\"0\" cellspacing=\"0\"><tr><td><font color=\"#000099\" size=\"+2\"><strong>Pugh's Marina</strong></font></td></tr><tr><td><table width=\"98%\"><tr><td width=\"13%\"></td><td>1001 Michigan Boulevard</td><tr><td width=\"13%\"></td><td>Racine, WI 53402</td></tr></table></table><tr><td><tr><td align=\"center\"><p><font color=\"#0000FF\"><a href=\"http://www.northwoodsboats.com/ycmarinas.html\">northwoodsboats.com</a>&nbsp;&nbsp;&nbsp;&nbsp;&nbsp;&nbsp;</font><strong>|</strong>&nbsp;&nbsp;&nbsp;&nbsp;&nbsp;</strong><font color=\"#000000\">262-632-8515</font></p></td></tr><tr><td colspan=\"2\"><tr><td colspan=\"2\" align=\"center\" valign=\"top\"><hr><a href=\"http://www.wisconsincoastalguide.org/\">www.wisconsincoastalguide.org</a></td></tr></table></table></td></tr>","phone":"262-632-8515","link":{"text":"northwoodsboats.com"},"address":{"street":"1001 Michigan Boulevard","zip":"53402","city":"Racine"}},"geometry":{"type":"Point","coordinates":[-87.78008,42.73388]}},{"type":"Feature","properties":{"name":"Azarian & Sons Marina","description":"Slip rentals for power boats and sail boats. Charters, storage, and launch ramp available.","phone":"262-637-4153","link":{"text":"racine.wi.net"},"address":{"street":"726 Water Street","zip":"53403","city":"Racine"}},"geometry":{"type":"Point","coordinates":[-87.78818,42.72812]}},{"type":"Feature","properties":{"name":"Simmons Island Boat Harbor","description":"Seasonal and temporary slip rental, includes fish cleaning station, fueling, pump-out, and 24-hour security.","phone":"262-654-0207","link":{"text":"kenosha.org"},"address":{"street":"45th St. and Kennedy Dr","zip":"53140","city":"Kenosha"}},"geometry":{"type":"Point","coordinates":[-87.81703,42.59402]}},{"type":"Feature","properties":{"name":"Kenosha Yacht Club","description":"<table width=\"330\" border=\"0\" cellpadding=\"4\" cellspacing=\"0\"><tr><tr></tr><tr><td colspan=\"2\" align=\"left\"><table width=\"100%\" border=\"0\" align=\"center\" cellpadding=\"0\" cellspacing=\"0\"><tr><td><font color=\"#000099\" size=\"+2\"><strong>Kenosha Yacht Club</strong></font></td></tr><tr><td><table width=\"98%\"><tr><td width=\"13%\"></td><td>5130 4th Avenue</td><tr><td width=\"13%\"></td><td>Kenosha, WI 53140</td></tr></table></table><tr><td><tr><td align=\"center\"><p><font color=\"#0000FF\"><a href=\"http://www.kenoshayachtclub.com\">kenoshayachtclub.com</a>&nbsp;&nbsp;&nbsp;&nbsp;&nbsp;&nbsp;</font><strong>|</strong>&nbsp;&nbsp;&nbsp;&nbsp;&nbsp;</strong><font color=\"#000000\">262-652-2320</font></p></td></tr><tr><td colspan=\"2\"><tr><td colspan=\"2\" align=\"center\" valign=\"top\"><hr><a href=\"http://www.wisconsincoastalguide.org/\">www.wisconsincoastalguide.org</a></td></tr></table></table></td></tr>","phone":"262-652-2320","link":{"text":"kenoshayachtclub.com"},"address":{"street":"5130 4th Avenue","zip":"53140","city":"Kenosha"}},"geometry":{"type":"Point","coordinates":[-87.81656,42.58928]}},{"type":"Feature","properties":{"name":"Prairie Harbor Yacht Club","description":"Private facility with 151 slips with dock box, water, electricity, cable TV, and dockside pump-out.  Clubhouse has restrooms and laundry.","phone":"262-697-3200","link":{"text":"prairieharboryachtclub.com"},"address":{"street":"12800 Lakeshore Drive","zip":"53158","city":"Pleasant Prairie"}},"geometry":{"type":"Point","coordinates":[-87.80469,42.49478]}},{"type":"Feature","properties":{"name":"Paul's Landing","description":"Offers over 200 feet of frontage, boat storage, bunkhouses, campsites, and charter fishing availability.","phone":"920-336-2147","link":{"text":"paulslanding.net"},"address":{"street":"213 Navarino Street","zip":"54201","city":"Algoma"}},"geometry":{"type":"Point","coordinates":[-87.43656,44.61031]}},{"type":"Feature","properties":{"name":"Silver Gull Marina","description":"No information for this marina has been provided.","phone":"920-839-2330","link":{"text":"No Website Provided"},"address":{"street":"8132 Highway 57","zip":"54202","city":"Bailey's Harbor"}},"geometry":{"type":"Point","coordinates":[-87.12301,45.06616]}},{"type":"Feature","properties":{"name":"Fish Creek Municipal Dock","description":"Offers first come first serve boat slips, gas, diesel, pump-out, electricity, water, Wi-Fi, restrooms and showers, launch ramps, and ice.","phone":"920-868-3476","link":{"text":"townofgibraltar.com"},"address":{"street":"3859 Highway 42","zip":"54212","city":"Fish Creek"}},"geometry":{"type":"Point","coordinates":[-87.24518,45.12916]}},{"type":"Feature","properties":{"name":"Bayshore County Park","description":"Public park that offers boat launch, recreational areas, and overnight mooring.","phone":"920-448-4466","link":{"text":"recreationparks.net"},"address":{"street":"5367 Sturgeon Bay Road","zip":"54301","city":"Green Bay"}},"geometry":{"type":"Point","coordinates":[-87.80353,44.63779]}},{"type":"Feature","properties":{"name":"Villa Marina","description":"No information for this marina has been provided.","phone":"262-652-9400","link":{"text":"recreationparks.net"},"address":{"street":"4927 7th Ave","zip":"53140","city":"Kenosha"}},"geometry":{"type":"Point","coordinates":[-87.81954,42.59097]}},{"type":"Feature","properties":{"name":"Weiss Marina","description":"Offers 16 to 43 boat slips, picnic areas, restrooms and showers, electricity, water, and proximity to shopping and restaurants.","phone":"262-308-4878","link":{"text":"weissmarina.com"},"address":{"street":"4927 7th Ave","zip":"53140","city":"Kenosha"}},"geometry":{"type":"Point","coordinates":[-87.81921,42.59153]}},{"type":"Feature","properties":{"name":"Harbor Express","description":"Offers gas and diesel, restrooms, ice, and convenience store amenities.","phone":"920-388-2254","link":{"text":"No Website Provided"},"address":{"street":"202 Milwaukee St.","zip":"54216","city":"Kewaunee"}},"geometry":{"type":"Point","coordinates":[-87.50311,44.46112]}},{"type":"Feature","properties":{"name":"Harborside Yacht Center","description":"Provides technical support, repair services, refinishing services, installations, and boat storage.","phone":"414-273-0711","link":{"text":"harborsideyachtcenter.com"},"address":{"street":"700 S. Water St.","zip":"53204","city":"Milwaukee"}},"geometry":{"type":"Point","coordinates":[-87.90537,43.02335]}},{"type":"Feature","properties":{"name":"Pier Milwaukee Inc.","description":"Offers indoor and outdoor boat storage, boat launch, and 40-ton heavy lift.","phone":"414-429-7000","link":{"text":"piermilwaukee.com"},"address":{"street":"2078 S 4th St.","zip":"53207","city":"Milwaukee"}},"geometry":{"type":"Point","coordinates":[-87.9143,43.00709]}},{"type":"Feature","properties":{"name":"Sail Loft","description":"Offers harbor docking, boat slips, and waterfront access.","phone":"414-223-0100","link":{"text":"milwaukeesailloft.com"},"address":{"street":"649 E Erie St","zip":"53202","city":"Milwaukee"}},"geometry":{"type":"Point","coordinates":[-87.90227,43.02594]}},{"type":"Feature","properties":{"name":"Bender Park Harbor","description":"Offers waterfront access, boat launch, restrooms, and nearby hiking.","phone":"414-257-6100","link":{"text":"No Website Provided"},"address":{"street":"9480 Watertown Plank Road","zip":"53226","city":"Oak Creek"}},"geometry":{"type":"Point","coordinates":[-87.83926,42.86736]}},{"type":"Feature","properties":{"name":"Fifth Street Yacht Club","description":"Contact for membership information.","phone":"262-632-9718","link":{"text":"fifthstreetyachtclub.org"},"address":{"street":"PO Box 127","zip":"54211","city":"Racine"}},"geometry":{"type":"Point","coordinates":[-87.79153,42.72991]}},{"type":"Feature","properties":{"name":"Harbor Lite Yacht Club","description":"Contact for membership information.","phone":"262-634-9280","link":{"text":"harborlite.org"},"address":{"street":"559 State Street","zip":"53402","city":"Racine"}},"geometry":{"type":"Point","coordinates":[-87.78595,42.73142]}},{"type":"Feature","properties":{"name":"Sheboygan Yacht Club","description":"Contact for membership information.","phone":"920-458-6601","link":{"text":"sheboyganyachtclub.com"},"address":{"street":"214 Pennsylvania Ave","zip":"53081","city":"Sheboygan"}},"geometry":{"type":"Point","coordinates":[-87.70321,43.75009]}},{"type":"Feature","properties":{"name":"Al Johnson's Marina","description":"Offers boat slips, docking near sister bay.","phone":"920-854-2626","link":{"text":"aljohnsons.com"},"address":{"street":"702 Bay Shore Dr","zip":"54234","city":"Sister Bay"}},"geometry":{"type":"Point","coordinates":[-87.12124,45.1904]}},{"type":"Feature","properties":{"name":"Ellison Bay Town Dock","description":"No information present at this time.","phone":"920-421-1974","link":{"text":"No Website Provided"},"address":{"street":"12033 Cedar Rd","zip":"54234","city":"Sister Bay"}},"geometry":{"type":"Point","coordinates":[-87.075,45.25543]}},{"type":"Feature","properties":{"name":"Seaquist Bay Shore Marina","description":"Family owned marina capable of handling 10 to 12 boats up to 30 feet in length. This is an all-weather mooring-only facility offering secure mooring, as well as great protection at a reasonable price.","phone":"920-854-2478","link":{"text":"seaquistbayshore.com"},"address":{"street":"11503 Beach Rd","zip":"54234","city":"Sister Bay"}},"geometry":{"type":"Point","coordinates":[-87.1196,45.22985]}},{"type":"Feature","properties":{"name":"Snug Harbor Inn Marina","description":"Offers 300 feet of water frontage, picnic areas, boat rentals, and cottage rooms and suites.","phone":"920-743-2337","link":{"text":"snugharborinn.com"},"address":{"street":"1627 Memorial Dr","zip":"54235","city":"Sturgeon Bay"}},"geometry":{"type":"Point","coordinates":[-87.35662,44.82366]}},{"type":"Feature","properties":{"name":"Whale's Tail Marina","description":"No information present at this time.","phone":"920-434-2263","link":{"text":"No Website Provided"},"address":{"street":"1220 Riverside Dr","zip":"54173","city":"Saumico"}},"geometry":{"type":"Point","coordinates":[-88.03061,44.63445]}},{"type":"Feature","properties":{"name":"Island Outpost, Ltd.","description":"No information for this marina is currently available.","phone":"920-847-2395","link":{"text":"No Website Provided"},"address":{"street":"268 Lobdell Point Rd","zip":"54246","city":"Washington Island"}},"geometry":{"type":"Point","coordinates":[-86.93799,45.33971]}},{"type":"Feature","properties":{"name":"Lindgren's Sunrise Marina","description":"Several boat slips available for a 15 dollar per day fee.","phone":"920-847-2021","link":{"text":"lindgrencottages.com"},"address":{"street":"2002 Indian Point Rd","zip":"54246","city":"Washington Island"}},"geometry":{"type":"Point","coordinates":[-86.85718,45.40222]}},{"type":"Feature","properties":{"name":"Jackson Harbor Town Dock","description":"No information available at this time.","phone":"920-847-2454","link":{"text":"No Website Provided"},"address":{"street":"Jackson Harbor Rd","zip":"54246","city":"Washington Island"}},"geometry":{"type":"Point","coordinates":[-86.85497,45.40011]}}]}