{
"type": "FeatureCollection",
"crs": { "type": "name", "properties": { "name": "urn:ogc:def:crs:OGC:1.3:CRS84" } },
"features": [
{ "type": "Feature", "properties": { "Name": "Apostle Islands Marina", "description": "Over 135 slips, provides gasoline, diesel, electricity, pump-out, ice, restrooms and showers. 30-ton Travelift, complete Rigging Service Center.", "timestamp": null, "begin": null, "end": null, "altitudeMode": null, "tessellate": -1, "extrude": 0, "visibility": -1, "drawOrder": null, "icon": null, "snippet": "", "TemplateName": "allinfo", "Title": "Apostle Islands Marina", "Address": "South 1st Street", "City": "Bayfield", "ZipCode": "54814", "Phone": "715-779-5661", "Website": "www.apostleislandsmarina.net", "URLtext": "apostleislandsmarina.net", "Description2": null, "ge4x_1": "\"\/><!--", "ge4x_2": "-->", "ge4x_3": "<!--" }, "geometry": { "type": "Point", "coordinates": [ -90.81416, 46.80951, 0.0 ] } },
{ "type": "Feature", "properties": { "Name": "Bayfield City Dock", "description": "Provides 30 slips, water, electricity, bathrooms, and restaurants.", "timestamp": null, "begin": null, "end": null, "altitudeMode": null, "tessellate": -1, "extrude": 0, "visibility": -1, "drawOrder": null, "icon": null, "snippet": "", "TemplateName": "allinfo", "Title": "City Dock", "Address": "Rittenhouse Avenue", "City": "Bayfield", "ZipCode": "54814", "Phone": "715-779-5712", "Website": "http:\/\/www.cityofbayfield.com\/city-dock.html", "URLtext": "cityofbayfield.com\/city-dock.html", "Description2": null, "ge4x_1": "\"\/><!--", "ge4x_2": "-->", "ge4x_3": "<!--" }, "geometry": { "type": "Point", "coordinates": [ -90.81354, 46.80837, 0.0 ] } },
{ "type": "Feature", "properties": { "Name": "City of Port Washington Marina", "description": "Offers 220 slips, provides gas, diesel, pump-out, restrooms, showers, laundry, convenience store, ice, boat launch, picnic area, and  free Wi-Fi.", "timestamp": null, "begin": null, "end": null, "altitudeMode": null, "tessellate": -1, "extrude": 0, "visibility": -1, "drawOrder": null, "icon": null, "snippet": "", "TemplateName": "allinfo", "Title": "City of Port Washington Marina", "Address": "106 N. Lake St", "City": "Port Washington", "ZipCode": "53704", "Phone": "262-284-6606", "Website": "http:\/\/port-washingtonmarina.com\/", "URLtext": "port-washingtonmarina.com", "Description2": null, "ge4x_1": "\"\/><!--", "ge4x_2": "-->", "ge4x_3": "<!--" }, "geometry": { "type": "Point", "coordinates": [ -87.86667, 43.38794, 0.0 ] } },
{ "type": "Feature", "properties": { "Name": "SG-Harbor Centre Marina", "description": "Offers over 170 slips, provides gas, pump-out, mechanical services, laundry, showers, restrooms, boat launch, swimming pool, tennis courts, picnic area, convenience store, Cable TV and Wi-Fi.", "timestamp": null, "begin": null, "end": null, "altitudeMode": null, "tessellate": -1, "extrude": 0, "visibility": -1, "drawOrder": null, "icon": null, "snippet": "", "TemplateName": "allinfo", "Title": "Harbor Centre Marina", "Address": "821 Broughton Drive", "City": "Sheboygan", "ZipCode": "53081", "Phone": "920-458-6665", "Website": "http:\/\/www.harborcentremarina.com", "URLtext": "harborcentremarina.com", "Description2": null, "ge4x_1": "\"\/><!--", "ge4x_2": "-->", "ge4x_3": "<!--" }, "geometry": { "type": "Point", "coordinates": [ -87.70075, 43.75366, 0.0 ] } },
{ "type": "Feature", "properties": { "Name": "Lakeshore Towers Marina", "description": "Offers about 50 slips.", "timestamp": null, "begin": null, "end": null, "altitudeMode": null, "tessellate": -1, "extrude": 0, "visibility": -1, "drawOrder": null, "icon": null, "snippet": "", "TemplateName": "allinfo", "Title": "Lakeshore Towers Marina", "Address": "333 Lake Avenue", "City": "Racine", "ZipCode": "53403", "Phone": "262-639-7737", "Website": "https:\/\/www.facebook.com\/LakeshoreTowersMarina\/", "URLtext": "www.facebook.com\/LakeshoreTowersMarina", "Description2": null, "ge4x_1": "\"\/><!--", "ge4x_2": "-->", "ge4x_3": "<!--" }, "geometry": { "type": "Point", "coordinates": [ -87.78083, 42.73028, 0.0 ] } },
{ "type": "Feature", "properties": { "Name": "McKinley Marina", "description": "Offers 655 slips, gas, diesel, electricity, pump-out, boat launch, restrooms, winter storage, and a convenience store.", "timestamp": null, "begin": null, "end": null, "altitudeMode": null, "tessellate": -1, "extrude": 0, "visibility": -1, "drawOrder": null, "icon": null, "snippet": "", "TemplateName": "allinfo", "Title": "McKinley Marina", "Address": "1750 N. Lincoln Memorial Drive", "City": "Milwaukee", "ZipCode": "53202", "Phone": "414-273-5224", "Website": "http:\/\/county.milwaukee.gov\/BoatingampMcKinleyMa9139.htm", "URLtext": "county.milwaukee.gov\/BoatingampMcKinleyMa9139.htm", "Description2": null, "ge4x_1": "\"\/><!--", "ge4x_2": "-->", "ge4x_3": "<!--" }, "geometry": { "type": "Point", "coordinates": [ -87.88814, 43.04932, 0.0 ] } },
{ "type": "Feature", "properties": { "Name": "Milwaukee Yacht Club", "description": "The Yacht Club offers boat storage, docking and launching as well as a site for dining, private parties, weddings  and business meetings.", "timestamp": null, "begin": null, "end": null, "altitudeMode": null, "tessellate": -1, "extrude": 0, "visibility": -1, "drawOrder": null, "icon": null, "snippet": "", "TemplateName": "allinfo", "Title": "Milwaukee Yacht Club", "Address": "1700 N. Lincoln Memorial Dr.", "City": "Milwaukee", "ZipCode": "53202", "Phone": "414-271-4455", "Website": "http:\/\/www.milwaukeeyc.com\/", "URLtext": "www.milwaukeeyc.com", "Description2": null, "ge4x_1": "\"\/><!--", "ge4x_2": "-->", "ge4x_3": "<!--" }, "geometry": { "type": "Point", "coordinates": [ -87.88579, 43.052028, 0.0 ] } },
{ "type": "Feature", "properties": { "Name": "Nestegg Marine", "description": "Offers boat slips, provides gas, diesel, pump-out, electricity, mechanical services, ice, restrooms, showers, laundry, cable TV, free Wi-Fi, convenience store, and boat launch.", "timestamp": null, "begin": null, "end": null, "altitudeMode": null, "tessellate": -1, "extrude": 0, "visibility": -1, "drawOrder": null, "icon": null, "snippet": "", "TemplateName": "allinfo", "Title": "Nestegg Marine", "Address": "300 Wells St", "City": "Marinette", "ZipCode": "54143", "Phone": "715-732-4466", "Website": "http:\/\/www.nesteggmarine.com", "URLtext": "nesteggmarine.com", "Description2": null, "ge4x_1": "\"\/><!--", "ge4x_2": "-->", "ge4x_3": "<!--" }, "geometry": { "type": "Point", "coordinates": [ -87.62573, 45.10137, 0.0 ] } },
{ "type": "Feature", "properties": { "Name": "Pikes Bay Marina", "description": "Offers 208 slips, provides gas, diesel, electricity, pump-out, mechanical services, 35-Ton Travel Lift, restrooms, storage, free Wi-Fi, and Cable TV.", "timestamp": null, "begin": null, "end": null, "altitudeMode": null, "tessellate": -1, "extrude": 0, "visibility": -1, "drawOrder": null, "icon": null, "snippet": "", "TemplateName": "allinfo", "Title": "Pikes Bay Marina", "Address": "84190 Pikes Bay Road", "City": "Bayfield", "ZipCode": "58414", "Phone": "715-779-3900", "Website": "http:\/\/www.pikesbaymarina.com", "URLtext": "pikesbaymarina.com", "Description2": null, "ge4x_1": "\"\/><!--", "ge4x_2": "-->", "ge4x_3": "<!--" }, "geometry": { "type": "Point", "coordinates": [ -90.85379, 46.78943, 0.0 ] } },
{ "type": "Feature", "properties": { "Name": "Racine Yacht Club", "description": "Offers sailing lessons, private beach, playground, dining area, and slips for members. Check out their website for more information regarding membership.", "timestamp": null, "begin": null, "end": null, "altitudeMode": null, "tessellate": -1, "extrude": 0, "visibility": -1, "drawOrder": null, "icon": null, "snippet": "", "TemplateName": "allinfo", "Title": "Racine Yacht Club", "Address": "1 Barker Street", "City": "Racine", "ZipCode": "53402", "Phone": "262-634-8585", "Website": "http:\/\/www.racineyachtclub.org", "URLtext": "racineyachtclub.org", "Description2": null, "ge4x_1": "\"\/><!--", "ge4x_2": "-->", "ge4x_3": "<!--" }, "geometry": { "type": "Point", "coordinates": [ -87.7781, 42.73706, 0.0 ] } },
{ "type": "Feature", "properties": { "Name": "Reefpoint Marina", "description": "Offers boat slips, fuel, pump-out, mechanical services, storage, convenience store, Wi-Fi, pool, and picnic area.", "timestamp": null, "begin": null, "end": null, "altitudeMode": null, "tessellate": -1, "extrude": 0, "visibility": -1, "drawOrder": null, "icon": null, "snippet": "", "TemplateName": "allinfo", "Title": "Reefpoint Marina", "Address": "#2 Christopher Columbus Causeway", "City": "Racine", "ZipCode": "53403", "Phone": "262-633-7171", "Website": "http:\/\/www.skipperbuds.com\/Page.aspx\/locationId\/2590\/pageId\/9310\/view\/Detail\/Reefpoint-Marina-WI.aspx", "URLtext": "skipperbuds.com", "Description2": null, "ge4x_1": "\"\/><!--", "ge4x_2": "-->", "ge4x_3": "<!--" }, "geometry": { "type": "Point", "coordinates": [ -87.77764, 42.73032, 0.0 ] } },
{ "type": "Feature", "properties": { "Name": "Skipper Bud's Yacht Center Quarterdeck Marina", "description": "Offers 250 slips.", "timestamp": null, "begin": null, "end": null, "altitudeMode": null, "tessellate": -1, "extrude": 0, "visibility": -1, "drawOrder": null, "icon": null, "snippet": "", "TemplateName": "allinfo", "Title": "Skipper Bud's Yacht Center Quarterdeck Marina", "Address": "705 Quarterdeck Lane", "City": "Sturgeon Bay", "ZipCode": "54235", "Phone": "920-746-8200", "Website": "http:\/\/www.skipperbuds.com\/Page.aspx\/locationId\/2584\/pageId\/9310\/view\/Detail\/Quarterdeck-Marina-WI.aspx", "URLtext": "skipperbuds.com", "Description2": null, "ge4x_1": "\"\/><!--", "ge4x_2": "-->", "ge4x_3": "<!--" }, "geometry": { "type": "Point", "coordinates": [ -87.37328, 44.8231, 0.0 ] } },
{ "type": "Feature", "properties": { "Name": "Southport Marina", "description": "Over 250 slips, provides gas, diesel, electricity, pump-out, mechanical services, 75-ton Travel Lift, heated storage, laundry, restrooms, and free Wi-Fi.", "timestamp": null, "begin": null, "end": null, "altitudeMode": null, "tessellate": -1, "extrude": 0, "visibility": -1, "drawOrder": null, "icon": null, "snippet": "", "TemplateName": "allinfo", "Title": "Southport Marina", "Address": "21 56th St", "City": "Kenosha", "ZipCode": "53140", "Phone": "262-657-5565", "Website": "www.spmarina.net", "URLtext": "spmarina.net", "Description2": null, "ge4x_1": "\"\/><!--", "ge4x_2": "-->", "ge4x_3": "<!--" }, "geometry": { "type": "Point", "coordinates": [ -87.81126, 42.58506, 0.0 ] } },
{ "type": "Feature", "properties": { "Name": "South Bay Marina", "description": "Offers about 70 slips, provides gas, diesel, pump-out, repair services, laundry, restrooms, boat launch, heated pool, refreshments, and heated storage.", "timestamp": null, "begin": null, "end": null, "altitudeMode": null, "tessellate": -1, "extrude": 0, "visibility": -1, "drawOrder": null, "icon": null, "snippet": "", "TemplateName": "allinfo", "Title": "South Bay Marina", "Address": "101 Bay Beach Road", "City": "Green Bay", "ZipCode": "54302", "Phone": "920-884-1464", "Website": "http:\/\/www.southbaymarina.com", "URLtext": "southbaymarina.com", "Description2": null, "ge4x_1": "\"\/><!--", "ge4x_2": "-->", "ge4x_3": "<!--" }, "geometry": { "type": "Point", "coordinates": [ -87.99844, 44.53873, 0.0 ] } },
{ "type": "Feature", "properties": { "Name": "South Shore Yacht Club", "description": "Facilities include tender service, dinghy storage, 230 slips, fuel dock, winter storage, and clubhouse.", "timestamp": null, "begin": null, "end": null, "altitudeMode": null, "tessellate": -1, "extrude": 0, "visibility": -1, "drawOrder": null, "icon": null, "snippet": "", "TemplateName": "allinfo", "Title": "South Shore Yacht Club", "Address": "2300 East Nock Street", "City": "Milwaukee", "ZipCode": "53207", "Phone": "414-481-2331", "Website": "www.ssyc.org", "URLtext": "ssyc.org", "Description2": null, "ge4x_1": "\"\/><!--", "ge4x_2": "-->", "ge4x_3": "<!--" }, "geometry": { "type": "Point", "coordinates": [ -87.88273, 42.99774, 0.0 ] } },
{ "type": "Feature", "properties": { "Name": "The Harbor Club Marina", "description": "Offers over 50 boat slips, provides pump-out, Wi-Fi, Cable TV, swimming pool, and dockside restaurant.", "timestamp": null, "begin": null, "end": null, "altitudeMode": null, "tessellate": -1, "extrude": 0, "visibility": -1, "drawOrder": null, "icon": null, "snippet": "", "TemplateName": "allinfo", "Title": "The Harbor Club Marina", "Address": "133 N. Madison Ave", "City": "Sturgeon Bay", "ZipCode": "54235", "Phone": "920-746-8200", "Website": "http:\/\/www.skipperbuds.com\/Page.aspx\/locationId\/2583\/pageId\/9310\/view\/Detail\/Harbor-Club-Marina-WI.aspx", "URLtext": "skipperbuds.com", "Description2": null, "ge4x_1": "\"\/><!--", "ge4x_2": "-->", "ge4x_3": "<!--" }, "geometry": { "type": "Point", "coordinates": [ -87.38347, 44.83116, 0.0 ] } },
{ "type": "Feature", "properties": { "Name": "Village of Egg Harbor Municipal Marina", "description": "Over 60 slips, provides gas, diesel electricity, pump-out, boat launch, laundry, restrooms and ice, fishing provisions, first aid, free Wi-Fi, Cable TV.", "timestamp": null, "begin": null, "end": null, "altitudeMode": null, "tessellate": -1, "extrude": 0, "visibility": -1, "drawOrder": null, "icon": null, "snippet": "", "TemplateName": "allinfo", "Title": "Village of Egg Harbor Municipal Marina", "Address": "7815 Dock Road", "City": "Egg Harbor", "ZipCode": "54209", "Phone": "920-868-3334", "Website": "http:\/\/eggharbormarina.com\/", "URLtext": "eggharbormarina.com", "Description2": null, "ge4x_1": "\"\/><!--", "ge4x_2": "-->", "ge4x_3": "<!--" }, "geometry": { "type": "Point", "coordinates": [ -87.28263, 45.05033, 0.0 ] } },
{ "type": "Feature", "properties": { "Name": "Washburn Marina", "description": "Over 140 slips, provides gas, diesel, pump-out, mechanical services, restroom, showers, 150-Ton Travel Lift, free Wi-Fi, Cable and Satellite TV, and other amenities.", "timestamp": null, "begin": null, "end": null, "altitudeMode": null, "tessellate": -1, "extrude": 0, "visibility": -1, "drawOrder": null, "icon": null, "snippet": "", "TemplateName": "allinfo", "Title": "Washburn Marina", "Address": "1 Marina Drive", "City": "Washburn", "ZipCode": "54891", "Phone": "715-373-5050", "Website": "http:\/\/www.southbaymarina.com", "URLtext": "http:\/\/www.washburnmarina.com", "Description2": null, "ge4x_1": "\"\/><!--", "ge4x_2": "-->", "ge4x_3": "<!--" }, "geometry": { "type": "Point", "coordinates": [ -90.88798, 46.66834, 0.0 ] } },
{ "type": "Feature", "properties": { "Name": "Barker's Island Marina", "description": "Offers 420 boat slips, complete yacht services, 35 ton open end travelift, parts and accessories, complete repair services for power and sail, and transient dockage.", "timestamp": null, "begin": null, "end": null, "altitudeMode": null, "tessellate": -1, "extrude": 0, "visibility": -1, "drawOrder": null, "icon": null, "snippet": "", "TemplateName": "allinfo", "Title": "Barker's Island Marina", "Address": "250 Marina Dr", "City": "Superior", "ZipCode": "54880", "Phone": "715-392-7131", "Website": "http:\/\/www.barkers-island-marina.com", "URLtext": "barkersislandmarina.com", "Description2": null, "ge4x_1": "\"\/><!--", "ge4x_2": "-->", "ge4x_3": "<!--" }, "geometry": { "type": "Point", "coordinates": [ -92.05416, 46.71632, 0.0 ] } },
{ "type": "Feature", "properties": { "Name": "Gaslight Pointe Marina", "description": "Provides restrooms, showers, ice, water, electricity, and private waterfront leisure space.", "timestamp": null, "begin": null, "end": null, "altitudeMode": null, "tessellate": -1, "extrude": 0, "visibility": -1, "drawOrder": null, "icon": null, "snippet": "", "TemplateName": "allinfo", "Title": "Gaslight Pointe Marina", "Address": "217 Gaslight Circle", "City": "Racine", "ZipCode": "53403", "Phone": "262-637-0400", "Website": "http:\/\/www.gaslightpointemarina.com", "URLtext": "gaslightpointemarina.com", "Description2": null, "ge4x_1": "\"\/><!--", "ge4x_2": "-->", "ge4x_3": "<!--" }, "geometry": { "type": "Point", "coordinates": [ -87.77969, 42.73143, 0.0 ] } },
{ "type": "Feature", "properties": { "Name": "Jerry's Dock", "description": "Offers scuba diving tours of Milwaukee area shipwrecks as well as salvage, boat towing, and mooring work.", "timestamp": null, "begin": null, "end": null, "altitudeMode": null, "tessellate": -1, "extrude": 0, "visibility": -1, "drawOrder": null, "icon": null, "snippet": "", "TemplateName": "allinfo", "Title": "Jerry's Dock", "Address": "318 S. Water St.", "City": "Milwaukee", "ZipCode": "53215", "Phone": "414-588-6764", "Website": "https:\/\/diveaai.com\/local-diving\/local-maps\/len-der-charters-milwaukee\/", "URLtext": "diveaai.com\/local-diving\/local-maps\/len-der-charters-milwaukee", "Description2": null, "ge4x_1": "\"\/><!--", "ge4x_2": "-->", "ge4x_3": "<!--" }, "geometry": { "type": "Point", "coordinates": [ -87.9058, 43.0281, 0.0 ] } },
{ "type": "Feature", "properties": { "Name": "Madeline Island Yacht Club", "description": "Full service 150-slip marina. Provides diesel, gasoline, electricity, water, pump-outs, restrooms with showers and a complete repair facility.", "timestamp": null, "begin": null, "end": null, "altitudeMode": null, "tessellate": -1, "extrude": 0, "visibility": -1, "drawOrder": null, "icon": null, "snippet": "", "TemplateName": "allinfo", "Title": "Madeline Island Yacht Club", "Address": "Main Street", "City": "La Pointe", "ZipCode": "54850", "Phone": "715-747-2655", "Website": "www.miyc.net\/index.htm", "URLtext": "miyc.net", "Description2": null, "ge4x_1": "\"\/><!--", "ge4x_2": "-->", "ge4x_3": "<!--" }, "geometry": { "type": "Point", "coordinates": [ -90.78084, 46.77274, 0.0 ] } },
{ "type": "Feature", "properties": { "Name": "Manitowoc Marina", "description": "Offers 250 slips, mechanical services, boat storage, convenience store, restrooms.", "timestamp": null, "begin": null, "end": null, "altitudeMode": null, "tessellate": -1, "extrude": 0, "visibility": -1, "drawOrder": null, "icon": null, "snippet": "", "TemplateName": "allinfo", "Title": "Manitowoc Marina", "Address": "425 Maritime Drive", "City": "Manitowoc", "ZipCode": "54221", "Phone": "920-682-5117", "Website": "http:\/\/www.manitowoc-marina.com", "URLtext": "manitowoc-marina.com", "Description2": null, "ge4x_1": "\"\/><!--", "ge4x_2": "-->", "ge4x_3": "<!--" }, "geometry": { "type": "Point", "coordinates": [ -87.64962, 44.0961, 0.0 ] } },
{ "type": "Feature", "properties": { "Name": "Port Superior Marina", "description": "Rental and transient dockage. Full service repair facility, ship store, fuel dock and pump out, restaurant and bar, charter boat rental office and onsite boat broker.", "timestamp": null, "begin": null, "end": null, "altitudeMode": null, "tessellate": -1, "extrude": 0, "visibility": -1, "drawOrder": null, "icon": null, "snippet": "", "TemplateName": "allinfo", "Title": "Port Superior Marina", "Address": "34480 Port Superior Rd.", "City": "Bayfield", "ZipCode": "54814", "Phone": "715-779-5360", "Website": "http:\/\/www.portsuperior.com\/", "URLtext": "portsuperior.com", "Description2": null, "ge4x_1": "\"\/><!--", "ge4x_2": "-->", "ge4x_3": "<!--" }, "geometry": { "type": "Point", "coordinates": [ -90.852945, 46.791237, 0.0 ] } },
{ "type": "Feature", "properties": { "Name": "Oconto Breakwater Park Marina", "description": "Offers fifty slips for boats 30-50 feet, water, electricity, showers, bathrooms, and fish cleaning station.", "timestamp": null, "begin": null, "end": null, "altitudeMode": null, "tessellate": -1, "extrude": 0, "visibility": -1, "drawOrder": null, "icon": null, "snippet": "", "TemplateName": "allinfo", "Title": "Oconto Breakwater Park Marina", "Address": "1345 Harbor Rd", "City": "Oconto", "ZipCode": "54153", "Phone": "920-834-7706", "Website": "http:\/\/cityofoconto.com\/Harbor.html", "URLtext": "cityofoconto.com\/Harbor.html", "Description2": null, "ge4x_1": "\"\/><!--", "ge4x_2": "-->", "ge4x_3": "<!--" }, "geometry": { "type": "Point", "coordinates": [ -87.83107, 44.89437, 0.0 ] } },
{ "type": "Feature", "properties": { "Name": "Racine Riverside Marine", "description": "Offers boat sales, accessories, services, and more.", "timestamp": null, "begin": null, "end": null, "altitudeMode": null, "tessellate": -1, "extrude": 0, "visibility": -1, "drawOrder": null, "icon": null, "snippet": "", "TemplateName": "allinfo", "Title": "Racine Riverside Marine", "Address": "950 Erie Street", "City": "Racine", "ZipCode": "53402", "Phone": "262-636-8020", "Website": "http:\/\/www.racineriverside.com\/", "URLtext": "racineriverside.com", "Description2": null, "ge4x_1": "\"\/><!--", "ge4x_2": "-->", "ge4x_3": "<!--" }, "geometry": { "type": "Point", "coordinates": [ -87.78649, 42.7328, 0.0 ] } },
{ "type": "Feature", "properties": { "Name": "Roy's Point Marina", "description": "Provides diesel, gasoline, pump-out, water, electricity, ice and cable TV hookup at each of the 41 slips. Includes boaters' lounge and restrooms with showers.", "timestamp": null, "begin": null, "end": null, "altitudeMode": null, "tessellate": -1, "extrude": 0, "visibility": -1, "drawOrder": null, "icon": null, "snippet": "", "TemplateName": "allinfo", "Title": "Roy's Point Marina", "Address": "37735 Roys Point Boulevard", "City": "Bayfield", "ZipCode": "54814", "Phone": "715-779-5025", "Website": "www.royspoint.com", "URLtext": "royspoint.com", "Description2": null, "ge4x_1": "\"\/><!--", "ge4x_2": "-->", "ge4x_3": "<!--" }, "geometry": { "type": "Point", "coordinates": [ -90.78593, 46.84154, 0.0 ] } },
{ "type": "Feature", "properties": { "Name": "Seagull Marina", "description": "Facilities include permanent and overnight dockage, gas, pump-out, launch ramp, fishing licenses,  fish cleaning station, fish freezing, complete fishing and marine supplies and live bait.", "timestamp": null, "begin": null, "end": null, "altitudeMode": null, "tessellate": -1, "extrude": 0, "visibility": -1, "drawOrder": null, "icon": null, "snippet": "", "TemplateName": "allinfo", "Title": "Seagull Marina", "Address": "1400 Lake Street", "City": "Two Rivers", "ZipCode": "54241", "Phone": "920-794-7533", "Website": "www.seagullmarina.com", "URLtext": "seagullmarina.com", "Description2": null, "ge4x_1": "\"\/><!--", "ge4x_2": "-->", "ge4x_3": "<!--" }, "geometry": { "type": "Point", "coordinates": [ -87.56683, 44.14543, 0.0 ] } },
{ "type": "Feature", "properties": { "Name": "Sister Bay Marina", "description": "The marina has one hundred seasonal slips, forty transient slips, and ten commercial slips.", "timestamp": null, "begin": null, "end": null, "altitudeMode": null, "tessellate": -1, "extrude": 0, "visibility": -1, "drawOrder": null, "icon": null, "snippet": "", "TemplateName": "allinfo", "Title": "Sister Bay Marina", "Address": "Bayshore Rd.", "City": "Sister Bay", "ZipCode": "54234", "Phone": "920-854-4457", "Website": "http:\/\/www.sisterbaymarina.com\/", "URLtext": "www.sisterbaymarina.com", "Description2": null, "ge4x_1": "\"\/><!--", "ge4x_2": "-->", "ge4x_3": "<!--" }, "geometry": { "type": "Point", "coordinates": [ -87.119701, 45.193278, 0.0 ] } },
{ "type": "Feature", "properties": { "Name": "West Shore Marine Inc.", "description": "Full service boatyard, storage, 30 slips with water, electricity, and WiFi, and restrooms with showers.", "timestamp": null, "begin": null, "end": null, "altitudeMode": null, "tessellate": -1, "extrude": 0, "visibility": -1, "drawOrder": null, "icon": null, "snippet": "", "TemplateName": "allinfo", "Title": "West Shore Marine Inc.", "Address": "811 Ontario St", "City": "Racine", "ZipCode": "54302", "Phone": "262-632-2724", "Website": "www.westshoreinc.com", "URLtext": "westshoreinc.com", "Description2": null, "ge4x_1": "\"\/><!--", "ge4x_2": "-->", "ge4x_3": "<!--" }, "geometry": { "type": "Point", "coordinates": [ -87.78547, 42.73057, 0.0 ] } },
{ "type": "Feature", "properties": { "Name": "Port Wing Marina", "description": "Provides gas, pump-out, water, electricity, and restrooms with showers.", "timestamp": null, "begin": null, "end": null, "altitudeMode": null, "tessellate": -1, "extrude": 0, "visibility": -1, "drawOrder": null, "icon": null, "snippet": "", "TemplateName": "allinfo", "Title": "Port Wing Marina", "Address": "9130 Beach Road", "City": "Port Wing", "ZipCode": "54865", "Phone": "715-774-3555", "Website": "www.portwingmarina.net", "URLtext": "portwingmarina.net", "Description2": null, "ge4x_1": "\"\/><!--", "ge4x_2": "-->", "ge4x_3": "<!--" }, "geometry": { "type": "Point", "coordinates": [ -91.38268, 46.79109, 0.0 ] } },
{ "type": "Feature", "properties": { "Name": "Siskiwit Bay Marina", "description": "15-ton Mobile Boat Lift, 10 ton hydraulic yard trailer.  Provides gasoline, diesel, pump-out, water and electricity. Small ship's store and gift shop. Restrooms and showers. Winter storage.", "timestamp": null, "begin": null, "end": null, "altitudeMode": null, "tessellate": -1, "extrude": 0, "visibility": -1, "drawOrder": null, "icon": null, "snippet": "", "TemplateName": "Text_Photo_Banner", "Title": "Siskiwit Bay Marina", "Address": "Cedar Road", "City": "Cornucopia", "ZipCode": "54827", "Phone": "715-742-3337", "Website": null, "URLtext": null, "Description2": null, "ge4x_1": "\"\/><!--", "ge4x_2": "-->", "ge4x_3": "<!--" }, "geometry": { "type": "Point", "coordinates": [ -91.10268, 46.85716, 0.0 ] } },
{ "type": "Feature", "properties": { "Name": "Schooner Bay Marina", "description": "Approx. 50 slips, provides water, electricity, restrooms and showers. Launching and haul outs limited to boats up to 40 ft.", "timestamp": null, "begin": null, "end": null, "altitudeMode": null, "tessellate": -1, "extrude": 0, "visibility": -1, "drawOrder": null, "icon": null, "snippet": "", "TemplateName": "Text_Photo_Banner", "Title": "Schooner Bay Marina", "Address": "90580 Pageant Road", "City": "Bayfield", "ZipCode": "54814", "Phone": "715-779-5849", "Website": null, "URLtext": null, "Description2": null, "ge4x_1": "\"\/><!--", "ge4x_2": "-->", "ge4x_3": "<!--" }, "geometry": { "type": "Point", "coordinates": [ -90.7725, 46.88196, 0.0 ] } },
{ "type": "Feature", "properties": { "Name": "Buffalo Bay Marina", "description": "Approx. 40 slips, electricity and water provided for some slips.  Small boat launching ramp, no hauling facilities.", "timestamp": null, "begin": null, "end": null, "altitudeMode": null, "tessellate": -1, "extrude": 0, "visibility": -1, "drawOrder": null, "icon": null, "snippet": "", "TemplateName": "allinfo", "Title": "Buffalo Bay Marina", "Address": "Red Cliff Campground Road", "City": "Bayfield", "ZipCode": "54814", "Phone": "715-799-3743", "Website": "http:\/\/redcliff-nsn.gov\/Tourism\/campground.htm", "URLtext": "redcliff-nsn.gov", "Description2": null, "ge4x_1": "\"\/><!--", "ge4x_2": "-->", "ge4x_3": "<!--" }, "geometry": { "type": "Point", "coordinates": [ -90.78592, 46.85448, 0.0 ] } },
{ "type": "Feature", "properties": { "Name": "Blackhawk Marina", "description": "60-slip complex, provides electricity, water, pump-out, restrooms and showers.", "timestamp": null, "begin": null, "end": null, "altitudeMode": null, "tessellate": -1, "extrude": 0, "visibility": -1, "drawOrder": null, "icon": null, "snippet": "", "TemplateName": "Simple_Image", "Title": "Blackhawk Marina", "Address": "14 Wilson Ave", "City": "Bayfield", "ZipCode": "54814", "Phone": null, "Website": null, "URLtext": null, "Description2": null, "ge4x_1": "\"\/><!--", "ge4x_2": "-->", "ge4x_3": "<!--" }, "geometry": { "type": "Point", "coordinates": [ -90.81813, 46.80768, 0.0 ] } },
{ "type": "Feature", "properties": { "Name": "Apostle Islands Yacht Club", "description": "Private club, provides water, electricity, restrooms with showers, and a picnic\/barbeque area.", "timestamp": null, "begin": null, "end": null, "altitudeMode": null, "tessellate": -1, "extrude": 0, "visibility": -1, "drawOrder": null, "icon": null, "snippet": "", "TemplateName": "allinfo", "Title": "Apostle Islands Yacht Club", "Address": "305 South 3rd Street", "City": "Bayfield", "ZipCode": "54814", "Phone": "715-779-3054", "Website": "www.aiyc.net", "URLtext": "aiyc.net", "Description2": null, "ge4x_1": "\"\/><!--", "ge4x_2": "-->", "ge4x_3": "<!--" }, "geometry": { "type": "Point", "coordinates": [ -90.81866, 46.8077, 0.0 ] } },
{ "type": "Feature", "properties": { "Name": "Ashland Marina", "description": "140-slip complex provides gasoline, diesel, pump-out, electricity, restrooms with showers, and a ship's store.", "timestamp": null, "begin": null, "end": null, "altitudeMode": null, "tessellate": -1, "extrude": 0, "visibility": -1, "drawOrder": null, "icon": null, "snippet": "", "TemplateName": "allinfo", "Title": "Ashland Marina", "Address": "Tri County Corridor", "City": "Ashland", "ZipCode": "54806", "Phone": "715-682-7049", "Website": "www.ci.ashland.wi.us\/taxonomy\/term\/44", "URLtext": "ashland.wi.us", "Description2": null, "ge4x_1": "\"\/><!--", "ge4x_2": "-->", "ge4x_3": "<!--" }, "geometry": { "type": "Point", "coordinates": [ -90.88701, 46.59469, 0.0 ] } },
{ "type": "Feature", "properties": { "Name": "Saxon Harbor", "description": "Provides gasoline, diesel, pump-out, water, electricity, and restrooms with showers. Equipped with 25-ton Travelift, winter storage, and an NOAA weather station.", "timestamp": null, "begin": null, "end": null, "altitudeMode": null, "tessellate": -1, "extrude": 0, "visibility": -1, "drawOrder": null, "icon": null, "snippet": "", "TemplateName": "allinfo", "Title": "Saxon Harbor", "Address": "Harbor Drive", "City": "Saxon", "ZipCode": "54559", "Phone": "715-561-4153", "Website": "www.saxonharborboatingclub.org", "URLtext": "saxonharborboatingclub.org", "Description2": null, "ge4x_1": "\"\/><!--", "ge4x_2": "-->", "ge4x_3": "<!--" }, "geometry": { "type": "Point", "coordinates": [ -90.43825, 46.56165, 0.0 ] } },
{ "type": "Feature", "properties": { "Name": "Harbor Town Marine Inc.", "description": "Full service marine facility with mechanics, a ship's store, lifts, personal watercraft, and storage space.", "timestamp": null, "begin": null, "end": null, "altitudeMode": null, "tessellate": -1, "extrude": 0, "visibility": -1, "drawOrder": null, "icon": null, "snippet": "", "TemplateName": "Text_Photo_Banner", "Title": "Harbor Town Marine Inc.", "Address": "203 E Russell St", "City": "Marinette", "ZipCode": "54143", "Phone": "715-732-9005", "Website": null, "URLtext": null, "Description2": null, "ge4x_1": "\"\/><!--", "ge4x_2": "-->", "ge4x_3": "<!--" }, "geometry": { "type": "Point", "coordinates": [ -87.59565, 45.09174, 0.0 ] } },
{ "type": "Feature", "properties": { "Name": "Hi Seas Marina", "description": "Provides fuel and pump-out, 24hr restrooms with showers. Includes maintenance and repair service, ship's store, and indoor and outdoor storage.", "timestamp": null, "begin": null, "end": null, "altitudeMode": null, "tessellate": -1, "extrude": 0, "visibility": -1, "drawOrder": null, "icon": null, "snippet": "", "TemplateName": "allinfo", "Title": "Hi Seas Marina", "Address": "1711 Harbor Road", "City": "Oconto", "ZipCode": "54153", "Phone": "920-834-2565", "Website": "www.hiseasmarina.com", "URLtext": "hiseasmarina.com", "Description2": null, "ge4x_1": "\"\/><!--", "ge4x_2": "-->", "ge4x_3": "<!--" }, "geometry": { "type": "Point", "coordinates": [ -87.84688, 44.88804, 0.0 ] } },
{ "type": "Feature", "properties": { "Name": "Oconto Yacht Club", "description": "Includes 38 slips and outdoor storage. Services include gasoline, pump-out, club house with kitchen, laundry, restrooms with shower, and picnic areas.", "timestamp": null, "begin": null, "end": null, "altitudeMode": null, "tessellate": -1, "extrude": 0, "visibility": -1, "drawOrder": null, "icon": null, "snippet": "", "TemplateName": "allinfo", "Title": "Oconto Yacht Club", "Address": "1781 Yacht Club Road", "City": "Oconto", "ZipCode": "54153", "Phone": "920-830-8562", "Website": "www.ocontoyachtclub.info", "URLtext": "ocontoyachtclub.info", "Description2": null, "ge4x_1": "\"\/><!--", "ge4x_2": "-->", "ge4x_3": "<!--" }, "geometry": { "type": "Point", "coordinates": [ -87.85187, 44.88599, 0.0 ] } },
{ "type": "Feature", "properties": { "Name": "Windjammer's Sailing Club", "description": "Slips for 52 boats, includes boat launch and 1-ton lift. Clubhouse with meeting room, bar room, and restrooms with showers.", "timestamp": null, "begin": null, "end": null, "altitudeMode": null, "tessellate": -1, "extrude": 0, "visibility": -1, "drawOrder": null, "icon": null, "snippet": "", "TemplateName": "allinfo", "Title": "Windjammer's Sailing Club", "Address": "4009 Channel Road", "City": "Suamico", "ZipCode": "54173", "Phone": "920-434-6850", "Website": "www.windjammerssailingclub.com", "URLtext": "windjammerssailingclub.com", "Description2": null, "ge4x_1": "\"\/><!--", "ge4x_2": "-->", "ge4x_3": "<!--" }, "geometry": { "type": "Point", "coordinates": [ -88.00503, 44.65181, 0.0 ] } },
{ "type": "Feature", "properties": { "Name": "Shipyard Marine", "description": "Services include storage, repair, tune-ups, winterization, and more.", "timestamp": null, "begin": null, "end": null, "altitudeMode": null, "tessellate": -1, "extrude": 0, "visibility": -1, "drawOrder": null, "icon": null, "snippet": "", "TemplateName": "allinfo", "Title": "Shipyard Marine", "Address": "780 Longtail Beach Road", "City": "Suamico", "ZipCode": "54173", "Phone": "920-434-2000", "Website": "www.yachtworld.com\/shipyardmarine", "URLtext": "yachtworld.com", "Description2": null, "ge4x_1": "\"\/><!--", "ge4x_2": "-->", "ge4x_3": "<!--" }, "geometry": { "type": "Point", "coordinates": [ -88.01399, 44.61445, 0.0 ] } },
{ "type": "Feature", "properties": { "Name": "The Boat Yard", "description": "Services include dry storage, maintenance, painting, restoration, storage, and winterizing.", "timestamp": null, "begin": null, "end": null, "altitudeMode": null, "tessellate": -1, "extrude": 0, "visibility": -1, "drawOrder": null, "icon": null, "snippet": "", "TemplateName": "allinfo", "Title": "The Boat Yard", "Address": "1028 McDonald Street", "City": "Green Bay", "ZipCode": "54303", "Phone": "920-435-7811", "Website": "www.theboatyard.us", "URLtext": "theboatyard.us", "Description2": null, "ge4x_1": "\"\/><!--", "ge4x_2": "-->", "ge4x_3": "<!--" }, "geometry": { "type": "Point", "coordinates": [ -88.01053, 44.52705, 0.0 ] } },
{ "type": "Feature", "properties": { "Name": "Riverplace Marina & Yacht", "description": "<table width=\"330\" border=\"0\" cellpadding=\"4\" cellspacing=\"0\"><tr><tr><\/tr><tr><td colspan=\"2\" align=\"left\"><table width=\"100%\" border=\"0\" align=\"center\" cellpadding=\"0\" cellspacing=\"0\"><tr><td><font color=\"#000099\" size=\"+2\"><strong>Riverplace Marina & Yacht<\/strong><\/font><\/td><\/tr><tr><td><table width=\"98%\"><tr><td width=\"13%\"><\/td><td>457 Marina Lane<\/td><tr><td width=\"13%\"><\/td><td>Green Bay, WI 54304<\/td><\/tr><\/table><\/table><tr><td><tr><td align=\"center\"><p><font color=\"#0000FF\"><a href=\"http:\/\/www.riverplacemarina.com\">riverplacemarina.com<\/a>&nbsp;&nbsp;&nbsp;&nbsp;&nbsp;&nbsp;<\/font><strong>|<\/strong>&nbsp;&nbsp;&nbsp;&nbsp;&nbsp;<\/strong><font color=\"#000000\">920-436-9920<\/font><\/p><\/td><\/tr><tr><td colspan=\"2\"><tr><td colspan=\"2\" align=\"center\" valign=\"top\"><hr><a href=\"http:\/\/www.wisconsincoastalguide.org\/\">www.wisconsincoastalguide.org<\/a><\/td><\/tr><\/table><\/table><\/td><\/tr>", "timestamp": null, "begin": null, "end": null, "altitudeMode": null, "tessellate": -1, "extrude": 0, "visibility": -1, "drawOrder": null, "icon": null, "snippet": "", "TemplateName": "Tall_Photo", "Title": "Riverplace Marina & Yacht", "Address": "457 Marina Lane", "City": "Green Bay", "ZipCode": "54304", "Phone": "920-436-9920", "Website": "www.riverplacemarina.com", "URLtext": "riverplacemarina.com", "Description2": null, "ge4x_1": "\"\/><!--", "ge4x_2": "-->", "ge4x_3": "<!--" }, "geometry": { "type": "Point", "coordinates": [ -88.04913, 44.47806, 0.0 ] } },
{ "type": "Feature", "properties": { "Name": "Allouez Yacht Harbor Inc.", "description": "<table width=\"330\" border=\"0\" cellpadding=\"4\" cellspacing=\"0\"><tr><tr><\/tr><tr><td colspan=\"2\" align=\"left\"><table width=\"100%\" border=\"0\" align=\"center\" cellpadding=\"0\" cellspacing=\"0\"><tr><td><font color=\"#000099\" size=\"+2\"><strong>Allouez Yacht Harbor Inc.<\/strong><\/font><\/td><\/tr><tr><td><table width=\"98%\"><tr><td width=\"13%\"><\/td><td>1310 Marine Street<\/td><tr><td width=\"13%\"><\/td><td>Green Bay, WI 54301<\/td><\/tr><\/table><\/table><tr><td><tr><td align=\"center\"><p><font color=\"#0000FF\"><a href=\"http:\/\/www.helloallouez.com\">helloallouez.com<\/a>&nbsp;&nbsp;&nbsp;&nbsp;&nbsp;&nbsp;<\/font><strong>|<\/strong>&nbsp;&nbsp;&nbsp;&nbsp;&nbsp;<\/strong><font color=\"#000000\">920-430-9300<\/font><\/p><\/td><\/tr><tr><td colspan=\"2\"><tr><td colspan=\"2\" align=\"center\" valign=\"top\"><hr><a href=\"http:\/\/www.wisconsincoastalguide.org\/\">www.wisconsincoastalguide.org<\/a><\/td><\/tr><\/table><\/table><\/td><\/tr>", "timestamp": null, "begin": null, "end": null, "altitudeMode": null, "tessellate": -1, "extrude": 0, "visibility": -1, "drawOrder": null, "icon": null, "snippet": "", "TemplateName": "Tall_Photo", "Title": "Allouez Yacht Harbor Inc.", "Address": "1310 Marine Street", "City": "Green Bay", "ZipCode": "54301", "Phone": "920-430-9300", "Website": "www.helloallouez.com", "URLtext": "helloallouez.com", "Description2": null, "ge4x_1": "\"\/><!--", "ge4x_2": "-->", "ge4x_3": "<!--" }, "geometry": { "type": "Point", "coordinates": [ -88.0225, 44.49572, 0.0 ] } },
{ "type": "Feature", "properties": { "Name": "Green Bay Yachting Club Inc.", "description": "Provides 83 slips, economical fuel, winter storage, and a clubhouse with a bar.", "timestamp": null, "begin": null, "end": null, "altitudeMode": null, "tessellate": -1, "extrude": 0, "visibility": -1, "drawOrder": null, "icon": null, "snippet": "", "TemplateName": "allinfo", "Title": "Green Bay Yachting Club Inc.", "Address": "100 Bay Beach Road", "City": "Green Bay", "ZipCode": "54305", "Phone": "920-432-0168", "Website": "www.greenbayyachtclub.com", "URLtext": "greenbayyachtclub.com", "Description2": null, "ge4x_1": "\"\/><!--", "ge4x_2": "-->", "ge4x_3": "<!--" }, "geometry": { "type": "Point", "coordinates": [ -88.00253, 44.53554, 0.0 ] } },
{ "type": "Feature", "properties": { "Name": "Eagles Nest Supper Club Marina", "description": "<table width=\"330\" border=\"0\" cellpadding=\"4\" cellspacing=\"0\"><tr><tr><\/tr><tr><td colspan=\"2\" align=\"left\"><table width=\"100%\" border=\"0\" align=\"center\" cellpadding=\"0\" cellspacing=\"0\">  <tr>     <td><font color=\"#000099\" size=\"+2\"><strong>Eagles Nest Supper Club Marina<\/strong><\/font><\/td>  <\/tr>  <tr><td><table width=\"98%\">  <tr>  <td width=\"13%\"><\/td>  <td>3261 Nicolet Dr<\/td>    <tr>    <td width=\"13%\"><\/td>    <td>Green Bay, WI 54311<\/td>    <\/tr><\/table><\/table><tr><td><tr><td align=\"center\"><p><font color=\"#000000\">920-468-0976<\/font><\/p><\/td><\/tr><tr><td colspan=\"2\"><tr><td colspan=\"2\" align=\"center\" valign=\"top\"><hr><a href=\"http:\/\/www.wisconsincoastalguide.org\/\">www.wisconsincoastalguide.org<\/a><\/td><\/tr><\/table><\/table><\/td><\/tr>", "timestamp": null, "begin": null, "end": null, "altitudeMode": null, "tessellate": -1, "extrude": 0, "visibility": -1, "drawOrder": null, "icon": null, "snippet": "", "TemplateName": "Text_Weblinks", "Title": "Eagles Nest Supper Club Marina", "Address": "3261 Nicolet Dr", "City": "Green Bay", "ZipCode": "54311", "Phone": "920-468-0976", "Website": null, "URLtext": null, "Description2": null, "ge4x_1": "\"\/><!--", "ge4x_2": "-->", "ge4x_3": "<!--" }, "geometry": { "type": "Point", "coordinates": [ -87.90604, 44.56343, 0.0 ] } },
{ "type": "Feature", "properties": { "Name": "Chaudoir's Dock", "description": "<table width=\"330\" border=\"0\" cellpadding=\"4\" cellspacing=\"0\"><tr><tr><\/tr><tr><td colspan=\"2\" align=\"left\"><table width=\"100%\" border=\"0\" align=\"center\" cellpadding=\"0\" cellspacing=\"0\">  <tr>     <td><font color=\"#000099\" size=\"+2\"><strong>Chaudoir's Dock<\/strong><\/font><\/td>  <\/tr>  <tr><td><table width=\"98%\">  <tr>  <td width=\"13%\"><\/td>  <td>1552 County N<\/td>    <tr>    <td width=\"13%\"><\/td>    <td>Brussels, WI 54204<\/td>    <\/tr><\/table><\/table><tr><td colspan=\"2\"><p><font color=\"#000000\">Facilities include a boat launch, picnic area, parking and restrooms.<\/font><\/p><\/td><\/tr><tr><td><tr><td align=\"center\"><p><font color=\"#0000FF\"><a href=\"http:\/\/map.co.door.wi.us\/parks\/Chaudoirs-Dock.htm\">Chaudoirs-Dock.htm<\/a><\/font><\/p><\/td><\/tr><tr><td colspan=\"2\"><tr><td colspan=\"2\" align=\"center\" valign=\"top\"><hr><a href=\"http:\/\/www.wisconsincoastalguide.org\/\">www.wisconsincoastalguide.org<\/a><\/td><\/tr><\/table><\/table><\/td><\/tr>", "timestamp": null, "begin": null, "end": null, "altitudeMode": null, "tessellate": -1, "extrude": 0, "visibility": -1, "drawOrder": null, "icon": null, "snippet": "", "TemplateName": "Text_Tall_Photo", "Title": null, "Address": null, "City": null, "ZipCode": null, "Phone": null, "Website": null, "URLtext": "Chaudoirs-Dock.htm", "Description2": null, "ge4x_1": "\"\/><!--", "ge4x_2": "-->", "ge4x_3": "<!--" }, "geometry": { "type": "Point", "coordinates": [ -87.69825, 44.74671, 0.0 ] } },
{ "type": "Feature", "properties": { "Name": "Wave Pointe Marina and Resort", "description": "Full service marina with 124 slips, diesel, gas, pump-out, cable, WiFi, and restrooms with showers. Bar, restaurant, and outdoor pool on-site.", "timestamp": null, "begin": null, "end": null, "altitudeMode": null, "tessellate": -1, "extrude": 0, "visibility": -1, "drawOrder": null, "icon": null, "snippet": "", "TemplateName": "allinfo", "Title": "Wave Pointe Marina and Resort", "Address": "3600 County Road CC", "City": "Sturgeon Bay", "ZipCode": "54235", "Phone": "920-824-5437", "Website": "www.wavepointe.com", "URLtext": "wavepointe.com", "Description2": null, "ge4x_1": "\"\/><!--", "ge4x_2": "-->", "ge4x_3": "<!--" }, "geometry": { "type": "Point", "coordinates": [ -87.55953, 44.84499, 0.0 ] } },
{ "type": "Feature", "properties": { "Name": "Stone Harbor Marina", "description": "Provides water and electricity, restrooms with showers, an on-site restaurant, and a resort hotel.", "timestamp": null, "begin": null, "end": null, "altitudeMode": null, "tessellate": -1, "extrude": 0, "visibility": -1, "drawOrder": null, "icon": null, "snippet": "", "TemplateName": "allinfo", "Title": "Stone Harbor Marina", "Address": "155 East Redwood", "City": "Sturgeon Bay", "ZipCode": "54235", "Phone": "920-743-6526", "Website": "www.baymarine.net", "URLtext": "baymarine.net", "Description2": null, "ge4x_1": "\"\/><!--", "ge4x_2": "-->", "ge4x_3": "<!--" }, "geometry": { "type": "Point", "coordinates": [ -87.37764, 44.82584, 0.0 ] } },
{ "type": "Feature", "properties": { "Name": "Sturgeon Bay Yacht Club", "description": "Provides fuel dock with gas, diesel, and pump-out, WiFi, laundry, and restrooms with showers. Includes yacht repair, certified technicians, and a 70-ton Travelift.", "timestamp": null, "begin": null, "end": null, "altitudeMode": null, "tessellate": -1, "extrude": 0, "visibility": -1, "drawOrder": null, "icon": null, "snippet": "", "TemplateName": "allinfo", "Title": "Sturgeon Bay Yacht Club", "Address": "600 Nautical Drive", "City": "Sturgeon Bay", "ZipCode": "54235", "Phone": "920-743-6934", "Website": "www.sturgeonbayyachtclub.com", "URLtext": "sturgeonbayyachtclub.com", "Description2": null, "ge4x_1": "\"\/><!--", "ge4x_2": "-->", "ge4x_3": "<!--" }, "geometry": { "type": "Point", "coordinates": [ -87.37551, 44.8243, 0.0 ] } },
{ "type": "Feature", "properties": { "Name": "Leathem Smith Lodge and Marina", "description": "52-slip marina. Lodge has tennis courts, a pool, bar, and restaurant on site.", "timestamp": null, "begin": null, "end": null, "altitudeMode": null, "tessellate": -1, "extrude": 0, "visibility": -1, "drawOrder": null, "icon": null, "snippet": "", "TemplateName": "allinfo", "Title": "Leathem Smith Lodge and Marina", "Address": "1640 Memorial Drive", "City": "Sturgeon Bay", "ZipCode": "54235", "Phone": "920-743-5555", "Website": "www.lslodge.com", "URLtext": "lslodge.com", "Description2": null, "ge4x_1": "\"\/><!--", "ge4x_2": "-->", "ge4x_3": "<!--" }, "geometry": { "type": "Point", "coordinates": [ -87.35621, 44.82341, 0.0 ] } },
{ "type": "Feature", "properties": { "Name": "Centerpointe Marina", "description": "150-slip complex able to accommodate yachts up to 250 feet. Clubhouse with lounge, laundry, and restrooms with showers.", "timestamp": null, "begin": null, "end": null, "altitudeMode": null, "tessellate": -1, "extrude": 0, "visibility": -1, "drawOrder": null, "icon": null, "snippet": "", "TemplateName": "allinfo", "Title": "Centerpointe Marina", "Address": "215 Quincy Street", "City": "Sturgeon Bay", "ZipCode": "54235", "Phone": "920-746-1912", "Website": "www.shipyardliving.com", "URLtext": "shipyardliving.com", "Description2": null, "ge4x_1": "\"\/><!--", "ge4x_2": "-->", "ge4x_3": "<!--" }, "geometry": { "type": "Point", "coordinates": [ -87.37431, 44.83013, 0.0 ] } },
{ "type": "Feature", "properties": { "Name": "Stone Harbor Resort", "description": "21-slip marina located on Sturgeon Bay.", "timestamp": null, "begin": null, "end": null, "altitudeMode": null, "tessellate": -1, "extrude": 0, "visibility": -1, "drawOrder": null, "icon": null, "snippet": "", "TemplateName": "allinfo", "Title": "Stone Harbor Resort", "Address": "107 North First Ave", "City": "Sturgeon Bay", "ZipCode": "54235", "Phone": "920-746-0700", "Website": "www.stoneharbor-resort.com", "URLtext": "stoneharbor-resort.com", "Description2": null, "ge4x_1": "\"\/><!--", "ge4x_2": "-->", "ge4x_3": "<!--" }, "geometry": { "type": "Point", "coordinates": [ -87.38016, 44.83366, 0.0 ] } },
{ "type": "Feature", "properties": { "Name": "Alibi Dock Marina", "description": "165 slips for boats up to 125 feet. Provides cable and wireless internet. Guest house, golfing, and a state park nearby.", "timestamp": null, "begin": null, "end": null, "altitudeMode": null, "tessellate": -1, "extrude": 0, "visibility": -1, "drawOrder": null, "icon": null, "snippet": "", "TemplateName": "allinfo", "Title": "Alibi Dock Marina", "Address": "9484 Spruce St", "City": "Fish Creek", "ZipCode": "54212", "Phone": "920-868-3789", "Website": "www.alibimarina.com", "URLtext": "alibimarina.com", "Description2": null, "ge4x_1": "\"\/><!--", "ge4x_2": "-->", "ge4x_3": "<!--" }, "geometry": { "type": "Point", "coordinates": [ -87.24671, 45.13017, 0.0 ] } },
{ "type": "Feature", "properties": { "Name": "Firehouse Marina", "description": "Seasonal slips, moorings and transient slips available for rental. Includes public launch ramp, and restrooms with showers.", "timestamp": null, "begin": null, "end": null, "altitudeMode": null, "tessellate": -1, "extrude": 0, "visibility": -1, "drawOrder": null, "icon": null, "snippet": "", "TemplateName": "Text_Photo_Banner", "Title": "Firehouse Marina", "Address": "Water Street S", "City": "Ephraim", "ZipCode": "54211", "Phone": "920-854-6861", "Website": null, "URLtext": null, "Description2": null, "ge4x_1": "\"\/><!--", "ge4x_2": "-->", "ge4x_3": "<!--" }, "geometry": { "type": "Point", "coordinates": [ -87.17016, 45.15452, 0.0 ] } },
{ "type": "Feature", "properties": { "Name": "Ephraim Yacht Club", "description": "Provides gas, diesel, and pump-out.", "timestamp": null, "begin": null, "end": null, "altitudeMode": null, "tessellate": -1, "extrude": 0, "visibility": -1, "drawOrder": null, "icon": null, "snippet": "", "TemplateName": "allinfo", "Title": "Ephraim Yacht Club", "Address": "10071 Water Street North", "City": "Ephraim", "ZipCode": "54211", "Phone": "920-854-4041", "Website": "www.eyc.org", "URLtext": "eyc.org", "Description2": null, "ge4x_1": "\"\/><!--", "ge4x_2": "-->", "ge4x_3": "<!--" }, "geometry": { "type": "Point", "coordinates": [ -87.17219, 45.15974, 0.0 ] } },
{ "type": "Feature", "properties": { "Name": "Sister Bay Resort and Yacht Club", "description": "30-slip private marina provides sheltered dock space for boats up to 35 feet.", "timestamp": null, "begin": null, "end": null, "altitudeMode": null, "tessellate": -1, "extrude": 0, "visibility": -1, "drawOrder": null, "icon": null, "snippet": "", "TemplateName": "allinfo", "Title": "Sister Bay Resort and Yacht Club", "Address": "10673 Regatta Way", "City": "Sister Bay", "ZipCode": "54234", "Phone": "920-854-1900", "Website": "www.ycsb.com", "URLtext": "ycsb.com", "Description2": null, "ge4x_1": "\"\/><!--", "ge4x_2": "-->", "ge4x_3": "<!--" }, "geometry": { "type": "Point", "coordinates": [ -87.12404, 45.18967, 0.0 ] } },
{ "type": "Feature", "properties": { "Name": "Yacht Works Marina", "description": "Over sixty slips provides power, cable TV, water, fuel, pump-out and full boatyard services. Includes restrooms with showers, laundry, and a ships store.", "timestamp": null, "begin": null, "end": null, "altitudeMode": null, "tessellate": -1, "extrude": 0, "visibility": -1, "drawOrder": null, "icon": null, "snippet": "", "TemplateName": "allinfo", "Title": "Yacht Works Marina", "Address": "10967 N. Bay Shore Drive", "City": "Sister Bay", "ZipCode": "54234", "Phone": "920-854-2124", "Website": "www.yachtworks.net", "URLtext": "yachtworks.net", "Description2": null, "ge4x_1": "\"\/><!--", "ge4x_2": "-->", "ge4x_3": "<!--" }, "geometry": { "type": "Point", "coordinates": [ -87.11982, 45.20265, 0.0 ] } },
{ "type": "Feature", "properties": { "Name": "Cedar Grove Resort and Harbor", "description": "Boat slips in 2 deep water harbors.", "timestamp": null, "begin": null, "end": null, "altitudeMode": null, "tessellate": -1, "extrude": 0, "visibility": -1, "drawOrder": null, "icon": null, "snippet": "", "TemplateName": "allinfo", "Title": "Cedar Grove Resort and Harbor", "Address": "12037 Cedar Rd", "City": "Ellison Bay", "ZipCode": "54210", "Phone": "920-854-2006", "Website": "www.cedargroveresort.com", "URLtext": "cedargroveresort.com", "Description2": null, "ge4x_1": "\"\/><!--", "ge4x_2": "-->", "ge4x_3": "<!--" }, "geometry": { "type": "Point", "coordinates": [ -87.07468, 45.25434, 0.0 ] } },
{ "type": "Feature", "properties": { "Name": "Dockside at Gills Rock", "description": "<table width=\"330\" border=\"0\" cellpadding=\"4\" cellspacing=\"0\"><tr><tr><\/tr><tr><td colspan=\"2\" align=\"left\"><table width=\"100%\" border=\"0\" align=\"center\" cellpadding=\"0\" cellspacing=\"0\">  <tr>     <td><font color=\"#000099\" size=\"+2\"><strong>Dockside at Gills Rock<\/strong><\/font><\/td>  <\/tr>  <tr><td><table width=\"98%\">  <tr>  <td width=\"13%\"><\/td>  <td>919 Cottage Rd<\/td>    <tr>    <td width=\"13%\"><\/td>    <td>Ellison Bay, WI 54210<\/td>    <\/tr><\/table><\/table><tr><td><tr><td align=\"center\"><p><font color=\"#000000\">920-854-9400<\/font><\/p><\/td><\/tr><tr><td colspan=\"2\"><tr><td colspan=\"2\" align=\"center\" valign=\"top\"><hr><a href=\"http:\/\/www.wisconsincoastalguide.org\/\">www.wisconsincoastalguide.org<\/a><\/td><\/tr><\/table><\/table><\/td><\/tr>", "timestamp": null, "begin": null, "end": null, "altitudeMode": null, "tessellate": -1, "extrude": 0, "visibility": -1, "drawOrder": null, "icon": null, "snippet": "", "TemplateName": "Text_Weblinks", "Title": "Dockside at Gills Rock", "Address": "919 Cottage Rd", "City": "Ellison Bay", "ZipCode": "54210", "Phone": "920-854-9400", "Website": null, "URLtext": null, "Description2": null, "ge4x_1": "\"\/><!--", "ge4x_2": "-->", "ge4x_3": "<!--" }, "geometry": { "type": "Point", "coordinates": [ -87.02265, 45.28778, 0.0 ] } },
{ "type": "Feature", "properties": { "Name": "Kap's Marina", "description": "Transient and seasonal slip rentals with gas, diesel, pump-out, and a Travelift. Includes restrooms with showers, internet, storage, and bait, tackle and fish licensing.", "timestamp": null, "begin": null, "end": null, "altitudeMode": null, "tessellate": -1, "extrude": 0, "visibility": -1, "drawOrder": null, "icon": null, "snippet": "", "TemplateName": "allinfo", "Title": "Kap's Marina", "Address": "189 Lobdell Point Road", "City": "Washington Isle", "ZipCode": "54246", "Phone": "920-847-2640", "Website": "www.kapsmarina.com", "URLtext": "kapsmarina.com", "Description2": null, "ge4x_1": "\"\/><!--", "ge4x_2": "-->", "ge4x_3": "<!--" }, "geometry": { "type": "Point", "coordinates": [ -86.93779, 45.33747, 0.0 ] } },
{ "type": "Feature", "properties": { "Name": "Shipyard Island Marina Inc.", "description": "Full-service marina including boat sales, storage, slip rental, and repairs. Includes laundry, a ship's store, and restaurant.", "timestamp": null, "begin": null, "end": null, "altitudeMode": null, "tessellate": -1, "extrude": 0, "visibility": -1, "drawOrder": null, "icon": null, "snippet": "", "TemplateName": "allinfo", "Title": "Shipyard Island Marina Inc.", "Address": "1475 South Shore Drive", "City": "Washington Island", "ZipCode": "54246", "Phone": "920-847-2533", "Website": "www.shipyardisland.com?", "URLtext": "shipyardisland.com?", "Description2": null, "ge4x_1": "\"\/><!--", "ge4x_2": "-->", "ge4x_3": "<!--" }, "geometry": { "type": "Point", "coordinates": [ -86.90836, 45.33953, 0.0 ] } },
{ "type": "Feature", "properties": { "Name": "Rowley's Bay Resort Marina", "description": "Docks include use of the resort amenities plus water and electric hookup.", "timestamp": null, "begin": null, "end": null, "altitudeMode": null, "tessellate": -1, "extrude": 0, "visibility": -1, "drawOrder": null, "icon": null, "snippet": "", "TemplateName": "allinfo", "Title": "Rowley's Bay Resort Marina", "Address": "1041 County Road ZZ", "City": "Ellison Bay", "ZipCode": "54210", "Phone": "920 854-2385", "Website": "www.wagontrailresort.com\/pages\/marina.html", "URLtext": "wagontrailresort.com", "Description2": null, "ge4x_1": "\"\/><!--", "ge4x_2": "-->", "ge4x_3": "<!--" }, "geometry": { "type": "Point", "coordinates": [ -87.03377, 45.2193, 0.0 ] } },
{ "type": "Feature", "properties": { "Name": "Bailey's Harbor Yacht Club", "description": "Resort includes 55-slip full service marina, pools, tennis courts, and a restaurant.", "timestamp": null, "begin": null, "end": null, "altitudeMode": null, "tessellate": -1, "extrude": 0, "visibility": -1, "drawOrder": null, "icon": null, "snippet": "", "TemplateName": "allinfo", "Title": "Bailey's Harbor Yacht Club", "Address": "8151 Ridges Road", "City": "Baileys Harbor", "ZipCode": "54202", "Phone": "920-839-2336", "Website": "www.bhycr.com", "URLtext": "bhycr.com", "Description2": null, "ge4x_1": "\"\/><!--", "ge4x_2": "-->", "ge4x_3": "<!--" }, "geometry": { "type": "Point", "coordinates": [ -87.09577, 45.0652, 0.0 ] } },
{ "type": "Feature", "properties": { "Name": "Bailey's Harbor Town Marina", "description": "43 slips with gas and diesel refueling, electricity, water, pump-out, four-lit launch ramps, fish cleaning station, and trailer parking. Includes restrooms, showers, and laundry.", "timestamp": null, "begin": null, "end": null, "altitudeMode": null, "tessellate": -1, "extrude": 0, "visibility": -1, "drawOrder": null, "icon": null, "snippet": "", "TemplateName": "allinfo", "Title": "Bailey's Harbor Town Marina", "Address": "8132 Hwy 57", "City": "Baileys Harbor", "ZipCode": "54202", "Phone": "920-839-9778", "Website": "www.baileysharbor.com\/marina.asp", "URLtext": "baileysharbor.com", "Description2": null, "ge4x_1": "\"\/><!--", "ge4x_2": "-->", "ge4x_3": "<!--" }, "geometry": { "type": "Point", "coordinates": [ -87.12257, 45.06552, 0.0 ] } },
{ "type": "Feature", "properties": { "Name": "City of Algoma Marina", "description": "Offers 56 slips for vessels up to 40 ft and includes electricity, water,  gasoline, pump-out and a fish cleaning station. Restrooms, showers and a lounge on site.", "timestamp": null, "begin": null, "end": null, "altitudeMode": null, "tessellate": -1, "extrude": 0, "visibility": -1, "drawOrder": null, "icon": null, "snippet": "", "TemplateName": "allinfo", "Title": "City of Algoma Marina", "Address": "60 Steele Street", "City": "Algoma", "ZipCode": "54201", "Phone": "920-487-2232", "Website": "www.algomacity.org\/harbor.html", "URLtext": "algomacity.org", "Description2": null, "ge4x_1": "\"\/><!--", "ge4x_2": "-->", "ge4x_3": "<!--" }, "geometry": { "type": "Point", "coordinates": [ -87.43268, 44.60728, 0.0 ] } },
{ "type": "Feature", "properties": { "Name": "Sunrise Cove Marina", "description": "Full service 42-slip marina includes electricity, water, gasoline, and year round travelift. Provides indoor and outdoor storage and minor boat repair.", "timestamp": null, "begin": null, "end": null, "altitudeMode": null, "tessellate": -1, "extrude": 0, "visibility": -1, "drawOrder": null, "icon": null, "snippet": "", "TemplateName": "allinfo", "Title": "Sunrise Cove Marina", "Address": "70 Church Street", "City": "Algoma", "ZipCode": "54201", "Phone": "920-487-3405", "Website": "www.sunrisecoveofwi.com", "URLtext": "sunrisecoveofwi.com", "Description2": null, "ge4x_1": "\"\/><!--", "ge4x_2": "-->", "ge4x_3": "<!--" }, "geometry": { "type": "Point", "coordinates": [ -87.43308, 44.60951, 0.0 ] } },
{ "type": "Feature", "properties": { "Name": "Captain K's Landing", "description": "12 docks and 23 boat slips with electric hookup. Includes fish cleaning station, showers, laundry, and camping.", "timestamp": null, "begin": null, "end": null, "altitudeMode": null, "tessellate": -1, "extrude": 0, "visibility": -1, "drawOrder": null, "icon": null, "snippet": "", "TemplateName": "allinfo", "Title": "Captain K's Landing", "Address": "325 Navarino Street", "City": "Algoma", "ZipCode": "54201", "Phone": "715-781-4135", "Website": "www.captainks.net", "URLtext": "captainks.net", "Description2": null, "ge4x_1": "\"\/><!--", "ge4x_2": "-->", "ge4x_3": "<!--" }, "geometry": { "type": "Point", "coordinates": [ -87.43978, 44.61192, 0.0 ] } },
{ "type": "Feature", "properties": { "Name": "Kewaunee Marina and Boat Landing", "description": "Boat launch with fish cleaning station. Full service marina with gas, supplies, and sundries.", "timestamp": null, "begin": null, "end": null, "altitudeMode": null, "tessellate": -1, "extrude": 0, "visibility": -1, "drawOrder": null, "icon": null, "snippet": "", "TemplateName": "allinfo", "Title": "Kewaunee Marina and Boat Landing", "Address": "123 N. Main Street", "City": "Kewaunee", "ZipCode": "54216", "Phone": "920-388-3300", "Website": "www.cityofkewaunee.org\/content\/recreation\/marina\/index.shtml", "URLtext": "cityofkewaunee.org", "Description2": null, "ge4x_1": "\"\/><!--", "ge4x_2": "-->", "ge4x_3": "<!--" }, "geometry": { "type": "Point", "coordinates": [ -87.50244, 44.46347, 0.0 ] } },
{ "type": "Feature", "properties": { "Name": "Salmon Harbor Marina", "description": "Full service marina, includes ship's store, lounge, laundry, restrooms with showers and storage.", "timestamp": null, "begin": null, "end": null, "altitudeMode": null, "tessellate": -1, "extrude": 0, "visibility": -1, "drawOrder": null, "icon": null, "snippet": "", "TemplateName": "allinfo", "Title": "Salmon Harbor Marina", "Address": "312 N. Main St", "City": "Kewaunee", "ZipCode": "54216", "Phone": "920-388-2120", "Website": "www.salmonharbor.net", "URLtext": "salmonharbor.net", "Description2": null, "ge4x_1": "\"\/><!--", "ge4x_2": "-->", "ge4x_3": "<!--" }, "geometry": { "type": "Point", "coordinates": [ -87.49897, 44.46587, 0.0 ] } },
{ "type": "Feature", "properties": { "Name": "Twin Cities Marine Inc.", "description": "Provides full service shop, head pump out, showers, fuel, water, electricity, and storage.", "timestamp": null, "begin": null, "end": null, "altitudeMode": null, "tessellate": -1, "extrude": 0, "visibility": -1, "drawOrder": null, "icon": null, "snippet": "", "TemplateName": "allinfo", "Title": "Twin Cities Marine Inc.", "Address": "1600 12th Street", "City": "Two Rivers", "ZipCode": "54241", "Phone": "920-793-2715?", "Website": "www.twincitiesmarine.com", "URLtext": "twincitiesmarine.com", "Description2": null, "ge4x_1": "\"\/><!--", "ge4x_2": "-->", "ge4x_3": "<!--" }, "geometry": { "type": "Point", "coordinates": [ -87.56866, 44.14481, 0.0 ] } },
{ "type": "Feature", "properties": { "Name": "Motts Marina", "description": "Marina includes 50 slips with electricity, water, fuel, and seasonal rental.", "timestamp": null, "begin": null, "end": null, "altitudeMode": null, "tessellate": -1, "extrude": 0, "visibility": -1, "drawOrder": null, "icon": null, "snippet": "", "TemplateName": "Text_Photo_Banner", "Title": "Motts Marina", "Address": "1900 Jackson Street", "City": "Two Rivers", "ZipCode": "54241", "Phone": "920-793-4196", "Website": null, "URLtext": null, "Description2": null, "ge4x_1": "\"\/><!--", "ge4x_2": "-->", "ge4x_3": "<!--" }, "geometry": { "type": "Point", "coordinates": [ -87.56292, 44.15111, 0.0 ] } },
{ "type": "Feature", "properties": { "Name": "Stop and Dock Marina", "description": "Marina includes 78 slips with electricity, water, fuel, and seasonal rental.", "timestamp": null, "begin": null, "end": null, "altitudeMode": null, "tessellate": -1, "extrude": 0, "visibility": -1, "drawOrder": null, "icon": null, "snippet": "", "TemplateName": "Text_Photo_Banner", "Title": "Stop and Dock Marina", "Address": "2510 West River Street", "City": "Two Rivers", "ZipCode": "54241", "Phone": "920-793-2906", "Website": null, "URLtext": null, "Description2": null, "ge4x_1": "\"\/><!--", "ge4x_2": "-->", "ge4x_3": "<!--" }, "geometry": { "type": "Point", "coordinates": [ -87.57937, 44.15666, 0.0 ] } },
{ "type": "Feature", "properties": { "Name": "West Twin Marina", "description": "<table width=\"330\" border=\"0\" cellpadding=\"4\" cellspacing=\"0\"><tr><tr><\/tr><tr><td colspan=\"2\" align=\"left\"><table width=\"100%\" border=\"0\" align=\"center\" cellpadding=\"0\" cellspacing=\"0\">  <tr>     <td><font color=\"#000099\" size=\"+2\"><strong>West Twin Marina<\/strong><\/font><\/td>  <\/tr>  <tr><td><table width=\"98%\">  <tr>  <td width=\"13%\"><\/td>  <td>1509 Monroe Street<\/td>    <tr>    <td width=\"13%\"><\/td>    <td>Two Rivers, WI 54241<\/td>    <\/tr><\/table><\/table><tr><td><tr><td align=\"center\"><p><font color=\"#000000\">920-794-6112<\/font><\/p><\/td><\/tr><tr><td colspan=\"2\"><tr><td colspan=\"2\" align=\"center\" valign=\"top\"><hr><a href=\"http:\/\/www.wisconsincoastalguide.org\/\">www.wisconsincoastalguide.org<\/a><\/td><\/tr><\/table><\/table><\/td><\/tr>", "timestamp": null, "begin": null, "end": null, "altitudeMode": null, "tessellate": -1, "extrude": 0, "visibility": -1, "drawOrder": null, "icon": null, "snippet": "", "TemplateName": "Text_Weblinks", "Title": "West Twin Marina", "Address": "1509 Monroe Street", "City": "Two Rivers", "ZipCode": "54241", "Phone": "920-794-6112", "Website": null, "URLtext": null, "Description2": null, "ge4x_1": "\"\/><!--", "ge4x_2": "-->", "ge4x_3": "<!--" }, "geometry": { "type": "Point", "coordinates": [ -87.57179, 44.14707, 0.0 ] } },
{ "type": "Feature", "properties": { "Name": "Skipper Bud's Milwaukee Marina", "description": "Service center offers 20 ton fork lift, mechanical repair facility, storage, restaurant and pub on site.", "timestamp": null, "begin": null, "end": null, "altitudeMode": null, "tessellate": -1, "extrude": 0, "visibility": -1, "drawOrder": null, "icon": null, "snippet": "", "TemplateName": "allinfo", "Title": "Skipper Bud's Milwaukee Marina", "Address": "1919 South Marina Drive", "City": "Milwaukee", "ZipCode": "53207", "Phone": "414-481-7600", "Website": "www.skipperbuds.com", "URLtext": "skipperbuds.com", "Description2": null, "ge4x_1": "\"\/><!--", "ge4x_2": "-->", "ge4x_3": "<!--" }, "geometry": { "type": "Point", "coordinates": [ -87.90555, 43.01015, 0.0 ] } },
{ "type": "Feature", "properties": { "Name": "South Milwaukee Yacht Club", "description": "96 slip harbor than can accommodate vessels up to 44ft , includes fuel dock, pump-out, winter storage, and clubhouse.", "timestamp": null, "begin": null, "end": null, "altitudeMode": null, "tessellate": -1, "extrude": 0, "visibility": -1, "drawOrder": null, "icon": null, "snippet": "", "TemplateName": "allinfo", "Title": "South Milwaukee Yacht Club", "Address": "101 Marshall Avenue", "City": "Milwaukee", "ZipCode": "53172", "Phone": "414-762 - 9819", "Website": "www.smyc.net", "URLtext": "smyc.net", "Description2": null, "ge4x_1": "\"\/><!--", "ge4x_2": "-->", "ge4x_3": "<!--" }, "geometry": { "type": "Point", "coordinates": [ -87.8435, 42.90591, 0.0 ] } },
{ "type": "Feature", "properties": { "Name": "Pugh's Marina", "description": "<table width=\"330\" border=\"0\" cellpadding=\"4\" cellspacing=\"0\"><tr><tr><\/tr><tr><td colspan=\"2\" align=\"left\"><table width=\"100%\" border=\"0\" align=\"center\" cellpadding=\"0\" cellspacing=\"0\"><tr><td><font color=\"#000099\" size=\"+2\"><strong>Pugh's Marina<\/strong><\/font><\/td><\/tr><tr><td><table width=\"98%\"><tr><td width=\"13%\"><\/td><td>1001 Michigan Boulevard<\/td><tr><td width=\"13%\"><\/td><td>Racine, WI 53402<\/td><\/tr><\/table><\/table><tr><td><tr><td align=\"center\"><p><font color=\"#0000FF\"><a href=\"http:\/\/www.northwoodsboats.com\/ycmarinas.html\">northwoodsboats.com<\/a>&nbsp;&nbsp;&nbsp;&nbsp;&nbsp;&nbsp;<\/font><strong>|<\/strong>&nbsp;&nbsp;&nbsp;&nbsp;&nbsp;<\/strong><font color=\"#000000\">262-632-8515<\/font><\/p><\/td><\/tr><tr><td colspan=\"2\"><tr><td colspan=\"2\" align=\"center\" valign=\"top\"><hr><a href=\"http:\/\/www.wisconsincoastalguide.org\/\">www.wisconsincoastalguide.org<\/a><\/td><\/tr><\/table><\/table><\/td><\/tr>", "timestamp": null, "begin": null, "end": null, "altitudeMode": null, "tessellate": -1, "extrude": 0, "visibility": -1, "drawOrder": null, "icon": null, "snippet": "", "TemplateName": "Tall_Photo", "Title": "Pugh's Marina", "Address": "1001 Michigan Boulevard", "City": "Racine", "ZipCode": "53402", "Phone": "262-632-8515", "Website": "www.northwoodsboats.com\/ycmarinas.html", "URLtext": "northwoodsboats.com", "Description2": null, "ge4x_1": "\"\/><!--", "ge4x_2": "-->", "ge4x_3": "<!--" }, "geometry": { "type": "Point", "coordinates": [ -87.78008, 42.73388, 0.0 ] } },
{ "type": "Feature", "properties": { "Name": "Azarian & Sons Marina", "description": "Slip rentals for power boats and sail boats. Charters, storage, and launch ramp available.", "timestamp": null, "begin": null, "end": null, "altitudeMode": null, "tessellate": -1, "extrude": 0, "visibility": -1, "drawOrder": null, "icon": null, "snippet": "", "TemplateName": "allinfo", "Title": "Azarian & Sons Marina", "Address": "726 Water Street", "City": "Racine", "ZipCode": "53403", "Phone": "262-637-4153", "Website": "http:\/\/racine.wi.net\/marinas.html", "URLtext": "racine.wi.net", "Description2": null, "ge4x_1": "\"\/><!--", "ge4x_2": "-->", "ge4x_3": "<!--" }, "geometry": { "type": "Point", "coordinates": [ -87.78818, 42.72812, 0.0 ] } },
{ "type": "Feature", "properties": { "Name": "Simmons Island Boat Harbor", "description": "Seasonal and temporary slip rental, includes fish cleaning station, fueling, pump-out, and 24-hour security.", "timestamp": null, "begin": null, "end": null, "altitudeMode": null, "tessellate": -1, "extrude": 0, "visibility": -1, "drawOrder": null, "icon": null, "snippet": "", "TemplateName": "allinfo", "Title": "Simmons Island Boat Harbor", "Address": "45th St. and Kennedy Dr", "City": "Kenosha", "ZipCode": "53140", "Phone": "262-654-0207", "Website": "www.kenosha.org", "URLtext": "kenosha.org", "Description2": null, "ge4x_1": "\"\/><!--", "ge4x_2": "-->", "ge4x_3": "<!--" }, "geometry": { "type": "Point", "coordinates": [ -87.81703, 42.59402, 0.0 ] } },
{ "type": "Feature", "properties": { "Name": "Kenosha Yacht Club", "description": "<table width=\"330\" border=\"0\" cellpadding=\"4\" cellspacing=\"0\"><tr><tr><\/tr><tr><td colspan=\"2\" align=\"left\"><table width=\"100%\" border=\"0\" align=\"center\" cellpadding=\"0\" cellspacing=\"0\"><tr><td><font color=\"#000099\" size=\"+2\"><strong>Kenosha Yacht Club<\/strong><\/font><\/td><\/tr><tr><td><table width=\"98%\"><tr><td width=\"13%\"><\/td><td>5130 4th Avenue<\/td><tr><td width=\"13%\"><\/td><td>Kenosha, WI 53140<\/td><\/tr><\/table><\/table><tr><td><tr><td align=\"center\"><p><font color=\"#0000FF\"><a href=\"http:\/\/www.kenoshayachtclub.com\">kenoshayachtclub.com<\/a>&nbsp;&nbsp;&nbsp;&nbsp;&nbsp;&nbsp;<\/font><strong>|<\/strong>&nbsp;&nbsp;&nbsp;&nbsp;&nbsp;<\/strong><font color=\"#000000\">262-652-2320<\/font><\/p><\/td><\/tr><tr><td colspan=\"2\"><tr><td colspan=\"2\" align=\"center\" valign=\"top\"><hr><a href=\"http:\/\/www.wisconsincoastalguide.org\/\">www.wisconsincoastalguide.org<\/a><\/td><\/tr><\/table><\/table><\/td><\/tr>", "timestamp": null, "begin": null, "end": null, "altitudeMode": null, "tessellate": -1, "extrude": 0, "visibility": -1, "drawOrder": null, "icon": null, "snippet": "", "TemplateName": "Tall_Photo", "Title": "Kenosha Yacht Club", "Address": "5130 4th Avenue", "City": "Kenosha", "ZipCode": "53140", "Phone": "262-652-2320", "Website": "www.kenoshayachtclub.com", "URLtext": "kenoshayachtclub.com", "Description2": null, "ge4x_1": "\"\/><!--", "ge4x_2": "-->", "ge4x_3": "<!--" }, "geometry": { "type": "Point", "coordinates": [ -87.81656, 42.58928, 0.0 ] } },
{ "type": "Feature", "properties": { "Name": "Prairie Harbor Yacht Club", "description": "Private facility with 151 slips with dock box, water, electricity, cable TV, and dockside pump-out.  Clubhouse has restrooms and laundry.", "timestamp": null, "begin": null, "end": null, "altitudeMode": null, "tessellate": -1, "extrude": 0, "visibility": -1, "drawOrder": null, "icon": null, "snippet": "", "TemplateName": "allinfo", "Title": "Prairie Harbor Yacht Club", "Address": "12800 Lakeshore Drive", "City": "Pleasant Prairie", "ZipCode": "53158", "Phone": "262-697-3200", "Website": "www.prairieharboryachtclub.com\/index.html", "URLtext": "prairieharboryachtclub.com", "Description2": null, "ge4x_1": "\"\/><!--", "ge4x_2": "-->", "ge4x_3": "<!--" }, "geometry": { "type": "Point", "coordinates": [ -87.80469, 42.49478, 0.0 ] } },
{ "type": "Feature", "properties": { "Name": "Paul's Landing", "description": "Offers over 200 feet of frontage, boat storage, bunkhouses, campsites, and charter fishing availability.", "timestamp": null, "begin": null, "end": null, "altitudeMode": null, "tessellate": -1, "extrude": 0, "visibility": -1, "drawOrder": null, "icon": null, "snippet": "", "TemplateName": "allinfo", "Title": "Paul's Landing", "Address": "213 Navarino Street", "City": "Algoma", "ZipCode": "54201", "Phone": "920-336-2147", "Website": "www.paulslanding.net", "URLtext": "paulslanding.net", "Description2": null, "ge4x_1": "\"\/><!--", "ge4x_2": "-->", "ge4x_3": "<!--" }, "geometry": { "type": "Point", "coordinates": [ -87.43656, 44.61031, 0.0 ] } },
{ "type": "Feature", "properties": { "Name": "Silver Gull Marina", "description": "No information for this marina has been provided.", "timestamp": null, "begin": null, "end": null, "altitudeMode": null, "tessellate": -1, "extrude": 0, "visibility": -1, "drawOrder": null, "icon": null, "snippet": "", "TemplateName": "allinfo", "Title": "Silver Gull Marina", "Address": "8132 Highway 57", "City": "Bailey's Harbor", "ZipCode": "54202", "Phone": "920-839-2330", "Website": "http:\/\/www.merchantcircle.com\/business\/Silver.Gull.Marina.920-839-2330", "URLtext": "No Website Provided", "Description2": null, "ge4x_1": "\"\/><!--", "ge4x_2": "-->", "ge4x_3": "<!--" }, "geometry": { "type": "Point", "coordinates": [ -87.12301, 45.06616, 0.0 ] } },
{ "type": "Feature", "properties": { "Name": "Fish Creek Municipal Dock", "description": "Offers first come first serve boat slips, gas, diesel, pump-out, electricity, water, Wi-Fi, restrooms and showers, launch ramps, and ice.", "timestamp": null, "begin": null, "end": null, "altitudeMode": null, "tessellate": -1, "extrude": 0, "visibility": -1, "drawOrder": null, "icon": null, "snippet": "", "TemplateName": "allinfo", "Title": "Fish Creek Municipal Dock", "Address": "3859 Highway 42", "City": "Fish Creek", "ZipCode": "54212", "Phone": "920-868-3476", "Website": "http:\/\/www.townofgibraltar.com\/gibraltar\/town+dockmarina\/dock+layout\/default.asp", "URLtext": "townofgibraltar.com", "Description2": null, "ge4x_1": "\"\/><!--", "ge4x_2": "-->", "ge4x_3": "<!--" }, "geometry": { "type": "Point", "coordinates": [ -87.24518, 45.12916, 0.0 ] } },
{ "type": "Feature", "properties": { "Name": "Bayshore County Park", "description": "Public park that offers boat launch, recreational areas, and overnight mooring.", "timestamp": null, "begin": null, "end": null, "altitudeMode": null, "tessellate": -1, "extrude": 0, "visibility": -1, "drawOrder": null, "icon": null, "snippet": "", "TemplateName": "allinfo", "Title": "Bayshore County Park", "Address": "5367 Sturgeon Bay Road", "City": "Green Bay", "ZipCode": "54301", "Phone": "920-448-4466", "Website": "http:\/\/www.recreationparks.net\/WI\/brown\/bayshore-county-park-dyckesville", "URLtext": "recreationparks.net", "Description2": null, "ge4x_1": "\"\/><!--", "ge4x_2": "-->", "ge4x_3": "<!--" }, "geometry": { "type": "Point", "coordinates": [ -87.80353, 44.63779, 0.0 ] } },
{ "type": "Feature", "properties": { "Name": "Villa Marina", "description": "No information for this marina has been provided.", "timestamp": null, "begin": null, "end": null, "altitudeMode": null, "tessellate": -1, "extrude": 0, "visibility": -1, "drawOrder": null, "icon": null, "snippet": "", "TemplateName": "allinfo", "Title": "Villa Marina", "Address": "4927 7th Ave", "City": "Kenosha", "ZipCode": "53140", "Phone": "262-652-9400", "Website": "http:\/\/www.recreationparks.net\/WI\/brown\/bayshore-county-park-dyckesville", "URLtext": "recreationparks.net", "Description2": null, "ge4x_1": "\"\/><!--", "ge4x_2": "-->", "ge4x_3": "<!--" }, "geometry": { "type": "Point", "coordinates": [ -87.81954, 42.59097, 0.0 ] } },
{ "type": "Feature", "properties": { "Name": "Weiss Marina", "description": "Offers 16 to 43 boat slips, picnic areas, restrooms and showers, electricity, water, and proximity to shopping and restaurants.", "timestamp": null, "begin": null, "end": null, "altitudeMode": null, "tessellate": -1, "extrude": 0, "visibility": -1, "drawOrder": null, "icon": null, "snippet": "", "TemplateName": "allinfo", "Title": "Weiss Marina", "Address": "4927 7th Ave", "City": "Kenosha", "ZipCode": "53140", "Phone": "262-308-4878", "Website": "http:\/\/www.weissmarina.com\/", "URLtext": "weissmarina.com", "Description2": null, "ge4x_1": "\"\/><!--", "ge4x_2": "-->", "ge4x_3": "<!--" }, "geometry": { "type": "Point", "coordinates": [ -87.81921, 42.59153, 0.0 ] } },
{ "type": "Feature", "properties": { "Name": "Harbor Express", "description": "Offers gas and diesel, restrooms, ice, and convenience store amenities.", "timestamp": null, "begin": null, "end": null, "altitudeMode": null, "tessellate": -1, "extrude": 0, "visibility": -1, "drawOrder": null, "icon": null, "snippet": "", "TemplateName": "allinfo", "Title": "Harbor Express", "Address": "202 Milwaukee St.", "City": "Kewaunee", "ZipCode": "54216", "Phone": "920-388-2254", "Website": "No Website Provided", "URLtext": "No Website Provided", "Description2": null, "ge4x_1": "\"\/><!--", "ge4x_2": "-->", "ge4x_3": "<!--" }, "geometry": { "type": "Point", "coordinates": [ -87.50311, 44.46112, 0.0 ] } },
{ "type": "Feature", "properties": { "Name": "Harborside Yacht Center", "description": "Provides technical support, repair services, refinishing services, installations, and boat storage.", "timestamp": null, "begin": null, "end": null, "altitudeMode": null, "tessellate": -1, "extrude": 0, "visibility": -1, "drawOrder": null, "icon": null, "snippet": "", "TemplateName": "allinfo", "Title": "Harborside Yacht Center", "Address": "700 S. Water St.", "City": "Milwaukee", "ZipCode": "53204", "Phone": "414-273-0711", "Website": "http:\/\/www.centerpointeservice.com\/#hs", "URLtext": "harborsideyachtcenter.com", "Description2": null, "ge4x_1": "\"\/><!--", "ge4x_2": "-->", "ge4x_3": "<!--" }, "geometry": { "type": "Point", "coordinates": [ -87.90537, 43.02335, 0.0 ] } },
{ "type": "Feature", "properties": { "Name": "Pier Milwaukee Inc.", "description": "Offers indoor and outdoor boat storage, boat launch, and 40-ton heavy lift.", "timestamp": null, "begin": null, "end": null, "altitudeMode": null, "tessellate": -1, "extrude": 0, "visibility": -1, "drawOrder": null, "icon": null, "snippet": "", "TemplateName": "allinfo", "Title": "Pier Milwaukee Inc.", "Address": "2078 S 4th St.", "City": "Milwaukee", "ZipCode": "53207", "Phone": "414-429-7000", "Website": "http:\/\/www.piermilwaukee.com\/", "URLtext": "piermilwaukee.com", "Description2": null, "ge4x_1": "\"\/><!--", "ge4x_2": "-->", "ge4x_3": "<!--" }, "geometry": { "type": "Point", "coordinates": [ -87.9143, 43.00709, 0.0 ] } },
{ "type": "Feature", "properties": { "Name": "Sail Loft", "description": "Offers harbor docking, boat slips, and waterfront access.", "timestamp": null, "begin": null, "end": null, "altitudeMode": null, "tessellate": -1, "extrude": 0, "visibility": -1, "drawOrder": null, "icon": null, "snippet": "", "TemplateName": "allinfo", "Title": "Sail Loft", "Address": "649 E Erie St", "City": "Milwaukee", "ZipCode": "53202", "Phone": "414-223-0100", "Website": "http:\/\/www.milwaukeesailloft.com\/", "URLtext": "milwaukeesailloft.com", "Description2": null, "ge4x_1": "\"\/><!--", "ge4x_2": "-->", "ge4x_3": "<!--" }, "geometry": { "type": "Point", "coordinates": [ -87.90227, 43.02594, 0.0 ] } },
{ "type": "Feature", "properties": { "Name": "Bender Park Harbor", "description": "Offers waterfront access, boat launch, restrooms, and nearby hiking.", "timestamp": null, "begin": null, "end": null, "altitudeMode": null, "tessellate": -1, "extrude": 0, "visibility": -1, "drawOrder": null, "icon": null, "snippet": "", "TemplateName": "allinfo", "Title": "Bender Park Harbor", "Address": "9480 Watertown Plank Road", "City": "Oak Creek", "ZipCode": "53226", "Phone": "414-257-6100", "Website": "No Website Provided", "URLtext": "No Website Provided", "Description2": null, "ge4x_1": "\"\/><!--", "ge4x_2": "-->", "ge4x_3": "<!--" }, "geometry": { "type": "Point", "coordinates": [ -87.83926, 42.86736, 0.0 ] } },
{ "type": "Feature", "properties": { "Name": "Fifth Street Yacht Club", "description": "Contact for membership information.", "timestamp": null, "begin": null, "end": null, "altitudeMode": null, "tessellate": -1, "extrude": 0, "visibility": -1, "drawOrder": null, "icon": null, "snippet": "", "TemplateName": "allinfo", "Title": "Fifth Street Yacht Club", "Address": "PO Box 127", "City": "Racine", "ZipCode": "54211", "Phone": "262-632-9718", "Website": "http:\/\/www.fifthstreetyachtclub.org\/", "URLtext": "fifthstreetyachtclub.org", "Description2": null, "ge4x_1": "\"\/><!--", "ge4x_2": "-->", "ge4x_3": "<!--" }, "geometry": { "type": "Point", "coordinates": [ -87.79153, 42.72991, 0.0 ] } },
{ "type": "Feature", "properties": { "Name": "Harbor Lite Yacht Club", "description": "Contact for membership information.", "timestamp": null, "begin": null, "end": null, "altitudeMode": null, "tessellate": -1, "extrude": 0, "visibility": -1, "drawOrder": null, "icon": null, "snippet": "", "TemplateName": "allinfo", "Title": "Harbor Lite Yacht Club", "Address": "559 State Street", "City": "Racine", "ZipCode": "53402", "Phone": "262-634-9280", "Website": "http:\/\/www.harborlite.org\/", "URLtext": "harborlite.org", "Description2": null, "ge4x_1": "\"\/><!--", "ge4x_2": "-->", "ge4x_3": "<!--" }, "geometry": { "type": "Point", "coordinates": [ -87.78595, 42.73142, 0.0 ] } },
{ "type": "Feature", "properties": { "Name": "Sheboygan Yacht Club", "description": "Contact for membership information.", "timestamp": null, "begin": null, "end": null, "altitudeMode": null, "tessellate": -1, "extrude": 0, "visibility": -1, "drawOrder": null, "icon": null, "snippet": "", "TemplateName": "allinfo", "Title": "Sheboygan Yacht Club", "Address": "214 Pennsylvania Ave", "City": "Sheboygan", "ZipCode": "53081", "Phone": "920-458-6601", "Website": "http:\/\/www.sheboyganyachtclub.com\/", "URLtext": "sheboyganyachtclub.com", "Description2": null, "ge4x_1": "\"\/><!--", "ge4x_2": "-->", "ge4x_3": "<!--" }, "geometry": { "type": "Point", "coordinates": [ -87.70321, 43.75009, 0.0 ] } },
{ "type": "Feature", "properties": { "Name": "Al Johnson's Marina", "description": "Offers boat slips, docking near sister bay.", "timestamp": null, "begin": null, "end": null, "altitudeMode": null, "tessellate": -1, "extrude": 0, "visibility": -1, "drawOrder": null, "icon": null, "snippet": "", "TemplateName": "allinfo", "Title": "Al Johnson's Marina", "Address": "702 Bay Shore Dr", "City": "Sister Bay", "ZipCode": "54234", "Phone": "920-854-2626", "Website": "http:\/\/www.aljohnsons.com\/index.asp\/", "URLtext": "aljohnsons.com", "Description2": null, "ge4x_1": "\"\/><!--", "ge4x_2": "-->", "ge4x_3": "<!--" }, "geometry": { "type": "Point", "coordinates": [ -87.12124, 45.1904, 0.0 ] } },
{ "type": "Feature", "properties": { "Name": "Ellison Bay Town Dock", "description": "No information present at this time.", "timestamp": null, "begin": null, "end": null, "altitudeMode": null, "tessellate": -1, "extrude": 0, "visibility": -1, "drawOrder": null, "icon": null, "snippet": "", "TemplateName": "allinfo", "Title": "Ellison Bay Town Dock", "Address": "12033 Cedar Rd", "City": "Sister Bay", "ZipCode": "54234", "Phone": "920-421-1974", "Website": "http:\/\/www.waterwayguide.com\/marina\/view\/905\/", "URLtext": "No Website Provided", "Description2": null, "ge4x_1": "\"\/><!--", "ge4x_2": "-->", "ge4x_3": "<!--" }, "geometry": { "type": "Point", "coordinates": [ -87.075, 45.25543, 0.0 ] } },
{ "type": "Feature", "properties": { "Name": "Seaquist Bay Shore Marina", "description": "Family owned marina capable of handling 10 to 12 boats up to 30 feet in length. This is an all-weather mooring-only facility offering secure mooring, as well as great protection at a reasonable price.", "timestamp": null, "begin": null, "end": null, "altitudeMode": null, "tessellate": -1, "extrude": 0, "visibility": -1, "drawOrder": null, "icon": null, "snippet": "", "TemplateName": "allinfo", "Title": "Seaquist Bay Shore Marina", "Address": "11503 Beach Rd", "City": "Sister Bay", "ZipCode": "54234", "Phone": "920-854-2478", "Website": "http:\/\/www.seaquistbayshore.com\/index.html", "URLtext": "seaquistbayshore.com", "Description2": null, "ge4x_1": "\"\/><!--", "ge4x_2": "-->", "ge4x_3": "<!--" }, "geometry": { "type": "Point", "coordinates": [ -87.1196, 45.22985, 0.0 ] } },
{ "type": "Feature", "properties": { "Name": "Snug Harbor Inn Marina", "description": "Offers 300 feet of water frontage, picnic areas, boat rentals, and cottage rooms and suites.", "timestamp": null, "begin": null, "end": null, "altitudeMode": null, "tessellate": -1, "extrude": 0, "visibility": -1, "drawOrder": null, "icon": null, "snippet": "", "TemplateName": "allinfo", "Title": "Snug Harbor Inn Marina", "Address": "1627 Memorial Dr", "City": "Sturgeon Bay", "ZipCode": "54235", "Phone": "920-743-2337", "Website": "http:\/\/www.snugharborinn.com", "URLtext": "snugharborinn.com", "Description2": null, "ge4x_1": "\"\/><!--", "ge4x_2": "-->", "ge4x_3": "<!--" }, "geometry": { "type": "Point", "coordinates": [ -87.35662, 44.82366, 0.0 ] } },
{ "type": "Feature", "properties": { "Name": "Whale's Tail Marina", "description": "No information present at this time.", "timestamp": null, "begin": null, "end": null, "altitudeMode": null, "tessellate": -1, "extrude": 0, "visibility": -1, "drawOrder": null, "icon": null, "snippet": "", "TemplateName": "allinfo", "Title": "Whale's Tail Marina", "Address": "1220 Riverside Dr", "City": "Saumico", "ZipCode": "54173", "Phone": "920-434-2263", "Website": "No Website Provided", "URLtext": "No Website Provided", "Description2": null, "ge4x_1": "\"\/><!--", "ge4x_2": "-->", "ge4x_3": "<!--" }, "geometry": { "type": "Point", "coordinates": [ -88.03061, 44.63445, 0.0 ] } },
{ "type": "Feature", "properties": { "Name": "Island Outpost, Ltd.", "description": "No information for this marina is currently available.", "timestamp": null, "begin": null, "end": null, "altitudeMode": null, "tessellate": -1, "extrude": 0, "visibility": -1, "drawOrder": null, "icon": null, "snippet": "", "TemplateName": "allinfo", "Title": "Island Outpost, Ltd.", "Address": "268 Lobdell Point Rd", "City": "Washington Island", "ZipCode": "54246", "Phone": "920-847-2395", "Website": "http:\/\/www.marinalife.com\/reservations\/5128-island-outpost-ltd-washington-island-wi", "URLtext": "No Website Provided", "Description2": null, "ge4x_1": "\"\/><!--", "ge4x_2": "-->", "ge4x_3": "<!--" }, "geometry": { "type": "Point", "coordinates": [ -86.93799, 45.33971, 0.0 ] } },
{ "type": "Feature", "properties": { "Name": "Lindgren's Sunrise Marina", "description": "Several boat slips available for a 15 dollar per day fee.", "timestamp": null, "begin": null, "end": null, "altitudeMode": null, "tessellate": -1, "extrude": 0, "visibility": -1, "drawOrder": null, "icon": null, "snippet": "", "TemplateName": "allinfo", "Title": "Lindgren's Sunrise Marina", "Address": "2002 Indian Point Rd", "City": "Washington Island", "ZipCode": "54246", "Phone": "920-847-2021", "Website": "http:\/\/www.lindgrencottages.com\/", "URLtext": "lindgrencottages.com", "Description2": null, "ge4x_1": "\"\/><!--", "ge4x_2": "-->", "ge4x_3": "<!--" }, "geometry": { "type": "Point", "coordinates": [ -86.85718, 45.40222, 0.0 ] } },
{ "type": "Feature", "properties": { "Name": "Jackson Harbor Town Dock", "description": "No information available at this time.", "timestamp": null, "begin": null, "end": null, "altitudeMode": null, "tessellate": -1, "extrude": 0, "visibility": -1, "drawOrder": null, "icon": null, "snippet": "", "TemplateName": "allinfo", "Title": "Jackson Harbor Town Dock", "Address": "Jackson Harbor Rd", "City": "Washington Island", "ZipCode": "54246", "Phone": "920-847-2454", "Website": "http:\/\/marinas.com\/view\/marina\/4620_Town_Dock_At_Jackson_Harbor_Washington_Island_WI_United_States", "URLtext": "No Website Provided", "Description2": null, "ge4x_1": "\"\/><!--", "ge4x_2": "-->", "ge4x_3": "<!--" }, "geometry": { "type": "Point", "coordinates": [ -86.85497, 45.40011, 0.0 ] } }
]
}
